stat_id,stat_name,lat,lng,geohash
100000415.0,국립고궁박물관,37.5787966,126.9740462,wydmc35
100000416.0,청와대,37.5827467,126.9737776,wydmc3e
100000417.0,춘추문,37.5829107,126.9797313,wydmc3z
100000418.0,경복궁.국립민속박물관,37.5795319,126.9795002,wydmc3p
108000382.0,영신여객차고지(우이동종점),37.6628289,127.0119655,wydq60r
108000014.0,우이동도선사입구.북한산우이역,37.6624998,127.0128184,wydq60p
108000015.0,우이동성원아파트,37.660809,127.013424,wydq4rb
108000017.0,진성빌라사거리,37.6596909,127.0137598,wydq4r8
108000018.0,서라벌중학교.우이동대우아파트,37.654607,127.012832,wydq4nz
108000019.0,덕성여대솔밭근린공원,37.6513809,127.0126091,wydq4np
108000020.0,국립4.19민주묘지입구사거리,37.6491109,127.0137114,wydq4mb
108000032.0,인수동장미원,37.6450333,127.0155272,wydq4m1
108000034.0,가오리역,37.6418977,127.0165777,wydq4k6
108000046.0,우이초등학교,37.6365089,127.017114,wydq47e
108000068.0,화계사입구,37.6333403,127.0174696,wydq46g
108000070.0,빨래골입구.수유1동주민센터,37.6298588,127.0177651,wydq467
108000072.0,롯데마트삼양점.래미안1차아파트,37.6252947,127.018224,wydq437
108000074.0,삼양초등학교,37.6230732,127.0191278,wydq43h
108000076.0,강북청소년문화정보도서관입구,37.621645,127.0202509,wydq42v
108000078.0,삼양동사거리,37.6185,127.0211833,wydq42n
108000078.0,삼양동사거리,37.6180883,127.0213079,wydq42n
108000080.0,송천초등학교.미아뉴타운입구,37.6154833,127.0221,wydmfrw
108000080.0,송천초등학교.미아뉴타운입구,37.6154596,127.0221103,wydmfrw
107000081.0,미아초교,37.6115667,127.0220333,wydmfqy
107000081.0,미아초교,37.6115318,127.0220389,wydmfqy
107000083.0,길음동동부아파트,37.6078667,127.0232833,wydmfqr
107000083.0,길음동동부아파트,37.6074364,127.0234369,wydmfqp
107000003.0,길음뉴타운(중),37.60365,127.02415,wydmft8
107000003.0,길음뉴타운,37.6036262,127.0241681,wydmft8
107000005.0,미아리고개.미아리예술극장(중),37.59885,127.0217,wydmfkw
107000005.0,미아리고개.미아리예술극장,37.5988112,127.021709,wydmfkw
107000007.0,돈암사거리.성신여대입구(중),37.5937667,127.0181333,wydmf7e
107000007.0,돈암사거리.성신여대입구,37.5937432,127.0181313,wydmf7e
107000009.0,삼선교.한성대학교(중),37.5898667,127.0092333,wydmf5j
107000009.0,삼선교.한성대학교,37.5898525,127.0092322,wydmf5j
100000132.0,혜화역.서울연극센터(장면총리가옥),37.5840228,127.0013281,wydmccz
100000125.0,혜화역.서울대병원입구,37.5810636,127.0019395,wydmccr
100000126.0,방송통신대.이화장,37.5781296,127.0019937,wydmf0b
100000127.0,이화동(이화장),37.5761193,127.0006951,wydmcbx
100000076.0,창덕궁.서울돈화문국악당,37.5775405,126.9885394,wydmc8y
100000369.0,안국역.서울공예박물관,37.5764011,126.9847682,wydmc8e
100000106.0,조계사,37.5725167,126.9828167,wydm9xf
100000106.0,조계사.종로경찰서,37.5724858,126.9828258,wydm9xf
100000330.0,종로1가,37.5703667,126.98045,wydm9x2
100000330.0,종로1가,37.57037,126.980129,wydm9x2
100000023.0,KT광화문지사,37.5724333,126.9773167,wydm9ry
100000023.0,KT광화문지사,37.5722264,126.977332,wydm9ry
100000022.0,경복궁,37.5756167,126.9787333,wydmc2r
100000022.0,경복궁,37.5755767,126.9787471,wydmc2r
100000104.0,안국역.인사동,37.5757849,126.9842425,wydmc87
100000103.0,창덕궁.우리소리박물관,37.5772728,126.9886349,wydmc8w
100000414.0,창덕궁.돈화문국악당,37.5773031,126.9910846,wydmcb8
100000159.0,원남동사거리,37.5757228,126.9982146,wydmcbm
100000122.0,현대그룹빌딩,37.57585,127.0005333,wydmcbq
100000122.0,현대그룹빌딩,37.575873,127.000533,wydmcbq
100000123.0,통신대(이화장),37.5781667,127.00245,wydmf0b
100000123.0,방송통신대.이화장,37.578043,127.002437,wydmf0b
100000124.0,혜화역.마로니에공원,37.58115,127.0022667,wydmf12
100000124.0,혜화역.마로니에공원,37.5811194,127.0022769,wydmf12
100000133.0,혜화역.동성중고(장면총리가옥),37.5846,127.0017167,wydmcfp
100000133.0,혜화역.동성중고(장면총리가옥),37.5845697,127.0017176,wydmcfp
107000010.0,삼선교.한성대학교.조소앙활동터(중),37.58935,127.0083667,wydmf4u
107000010.0,삼선교.한성대학교.조소앙활동터,37.5893128,127.0083738,wydmf4u
107000008.0,돈암사거리.성신여대입구(중),37.5933333,127.0178333,wydmf7e
107000008.0,돈암사거리.성신여대입구,37.5933062,127.017839,wydmf7e
107000006.0,미아리고개.미아리예술극장(중),37.59795,127.0218167,wydmfkq
107000006.0,미아리고개.미아리예술극장,37.597921,127.0218209,wydmfkq
107000033.0,돈암동삼성아파트입구,37.6019,127.0245667,wydmft0
107000033.0,돈암동삼성아파트입구,37.6018744,127.0245753,wydmft0
107000084.0,길음동동부아파트,37.6078333,127.0235333,wydmfqr
107000084.0,길음동동부아파트,37.60781,127.0235409,wydmfqr
107000082.0,미아초교,37.6109167,127.02245,wydmfqy
107000082.0,미아초교,37.6108866,127.0224658,wydmfqy
108000081.0,송천초등학교.미아뉴타운입구,37.6142167,127.0223,wydmfrq
108000081.0,송천초등학교.미아뉴타운입구,37.6140963,127.0223138,wydmfrq
108000079.0,삼양동사거리,37.6185667,127.02145,wydq42q
108000079.0,삼양동사거리,37.6185334,127.0214576,wydq42n
108000077.0,강북청소년문화정보도서관입구,37.6215172,127.0205867,wydq42v
108000075.0,삼양초등학교,37.623407,127.019088,wydq43h
108000073.0,롯데마트삼양점.래미안1차아파트,37.6253019,127.0184845,wydq43k
108000071.0,빨래골입구.서울수유초등학교,37.630007,127.017982,wydq467
108000069.0,화계사입구,37.6332538,127.0177047,wydq46g
108000047.0,우이초등학교,37.63681,127.017357,wydq47e
108000035.0,가오리역,37.6416805,127.0168113,wydq4k6
108000033.0,인수동장미원,37.6445998,127.0159997,wydq4kf
108000021.0,국립4.19민주묘지입구사거리,37.649113,127.014019,wydq4mb
109000135.0,덕성여대입구,37.65106,127.013138,wydq4q0
109000134.0,서라벌중학교.우이동대우아파트,37.655025,127.013223,wydq4qb
109000133.0,북서울교회,37.6572562,127.0136533,wydq4r2
109000236.0,동아운수앞,37.658907,127.013997,wydq4r8
108000016.0,우이동성원아파트,37.662045,127.013357,wydq620
108000383.0,영신여객차고지(우이동종점),37.6631389,127.0118528,wydq60r
108000037.0,북부성모병원,37.6467578,127.0170948,wydq4m7
108000038.0,수유2동주민센터우이시장,37.6450886,127.0194289,wydq4mh
108000040.0,광산사거리,37.6433419,127.0218795,wydq4ky
108000058.0,강북구청,37.640412,127.02602,wydq4s1
108000378.0,수유(강북구청)역(중),37.6385167,127.0261,wydq4ec
108000378.0,수유(강북구청)역,37.638477,127.0261,wydq4ec
108000003.0,수유역(중),37.6366667,127.0241333,wydq4e8
108000003.0,수유역,37.636659,127.0241165,wydq4e8
108000005.0,수유시장.성신여대미아캠퍼스앞(중),37.6309,127.02425,wydq4d2
108000005.0,수유시장.성신여대미아캠퍼스앞,37.6312262,127.0241719,wydq4d8
108000007.0,미아역.신일중고(중),37.6249,127.0266333,wydq493
108000007.0,미아역.신일중고,37.6248696,127.0266493,wydq493
108000009.0,도봉세무서.성북시장(중),37.61975,127.0287167,wydq487
108000009.0,도봉세무서.성북시장,37.619714,127.0287194,wydq487
108000189.0,롯데백화점미아점,37.6147094,127.0307561,wydmfxs
108000339.0,미아사거리역2번출구,37.6130228,127.0303904,wydmfxh
108000364.0,방천시장입구,37.611477,127.03269,wydmfwy
107000187.0,월곡1동주민센터,37.6105725,127.0353228,wydmfyb
107000189.0,밤나무골시장,37.6094533,127.0356802,wydmfy8
107000191.0,월곡동두산아파트,37.6066191,127.0365917,wydmfy1
107000193.0,생명의전화,37.604518,127.037215,wydmfv9
107000042.0,월곡역,37.601611,127.0415691,wydmfvh
107000044.0,동덕여대앞,37.6030027,127.0428338,wydmfvm
107000045.0,한국과학기술연구원입구,37.6055099,127.0474164,wydmgjc
107000047.0,월곡중학교,37.606895,127.049787,wydmgn4
107000049.0,새석관시장,37.6086333,127.0532472,wydmgnm
107000505.0,돌곶이역8번출구,37.610303,127.056327,wydmgnx
107000119.0,돌곶이역,37.6102045,127.0575578,wydmgq8
107000121.0,석관시장,37.6086897,127.0590704,wydmgq3
107000123.0,석관동새마을금고,37.6075718,127.060227,wydmgq4
107000125.0,한국예술종합학교,37.6056471,127.0618293,wydmgmg
105000046.0,의릉입구,37.6038755,127.0619229,wydmgme
105000044.0,이문동우체국,37.5993882,127.0617459,wydmgkg
105000042.0,외대앞,37.5956282,127.0596059,wydmgk1
105000040.0,경희중고,37.5930906,127.0579052,wydmg78
105000038.0,회기시장,37.5912026,127.0566389,wydmg5r
105000233.0,회기동현대아파트,37.5890582,127.0543646,wydmg4y
105000014.0,떡전교사거리.동대문노인복지관(중),37.5864667,127.05205,wydmg4k
105000014.0,떡전교사거리.동대문노인복지관,37.5864983,127.0521094,wydmg4k
105000228.0,청량리미주상가앞,37.5819579,127.0472557,wydmg18
105000402.0,청량리역환승센터,37.5807214,127.0454399,wydmfcr
105000200.0,동대문중앙새마을금고,37.5830829,127.0413063,wydmfcu
105000082.0,제기동주민센터.서울약령시앞,37.5819251,127.0383947,wydmfcd
105000083.0,경동시장,37.5799644,127.0382838,wydmfc4
105000555.0,경동시장사거리,37.5772293,127.0381091,wydmfbd
105000080.0,동대문구청.용신동주민센터,37.5755032,127.038003,wydmfb6
105000479.0,용두동신동아아파트,37.574045,127.0325997,wydmf8n
105000097.0,서울시동부병원,37.5762333,127.0306833,wydmf8s
105000097.0,서울시동부병원,37.5761901,127.0306952,wydmf8s
105000482.0,제기동역.서울약령시장(중),37.5781333,127.0376167,wydmfbc
105000482.0,제기동역.서울약령시,37.578139,127.0376239,wydmfbc
105000488.0,청량리청과물도매시장,37.5789667,127.0418333,wydmfcj
105000488.0,청량리수산시장,37.5789521,127.041895,wydmfcj
105000447.0,청량리역환승센터(2번승강장),37.58035,127.0457167,wydmfcr
105000447.0,청량리역환승센터,37.5803717,127.0456684,wydmfcr
105000030.0,서울성심병원,37.58465,127.05085,wydmg45
105000030.0,서울성심병원,37.5846074,127.0508977,wydmg45
105000234.0,우산빌딩앞,37.5888833,127.05455,wydmg4y
105000234.0,우산빌딩앞,37.5888823,127.054677,wydmg4y
105000039.0,회기시장,37.5909655,127.0567417,wydmg5p
105000041.0,경희중고,37.5933472,127.0583346,wydmg79
105000043.0,외대앞,37.5954812,127.0597677,wydmgk4
105000045.0,이문동교회,37.6001017,127.0621282,wydmgkg
105000047.0,의릉입구,37.6034852,127.0621763,wydmgme
107000126.0,한국예술종합학교,37.605537,127.0621021,wydmgmg
107000124.0,석관동새마을금고,37.6072717,127.0609375,wydmgq4
107000122.0,석관시장,37.6088158,127.0592358,wydmgq3
107000052.0,돌곶이역,37.6105861,127.0562084,wydmgnz
107000050.0,새석관시장,37.6087,127.0526018,wydmgnk
107000048.0,월곡중학교,37.6068921,127.0491494,wydmgn4
107000046.0,상월곡역,37.605489,127.046447,wydmgjb
107000043.0,월곡역,37.602911,127.042212,wydmfvm
107000041.0,성북구보건소,37.6025534,127.0392921,wydmfv7
107000194.0,생명의전화,37.604394,127.0374571,wydmfv9
107000192.0,월곡동두산아파트,37.6070029,127.0366463,wydmfy1
107000190.0,월곡삼성래미안아파트,37.609399,127.035937,wydmfy8
107000188.0,월곡1동주민센터,37.6105995,127.0355199,wydmfyb
108000102.0,숭곡초등학교입구,37.6101,127.0320167,wydmfwt
108000102.0,숭곡초등학교입구,37.610105,127.0320401,wydmfwt
108000012.0,미아사거리역(중),37.6129167,127.0302,wydmfxh
108000012.0,미아사거리역,37.6128943,127.0302131,wydmfxh
108000010.0,도봉세무서.성북시장(중),37.6188667,127.0292333,wydq487
108000010.0,도봉세무서.성북시장,37.6188372,127.029248,wydq487
108000008.0,미아역.신일중고(중),37.6241333,127.0271167,wydq496
108000008.0,미아역.신일중고,37.6241099,127.027135,wydq496
108000006.0,수유시장.성신여대미아캠퍼스앞(중),37.6305667,127.0245333,wydq4d2
108000006.0,수유시장.성신여대미아캠퍼스앞,37.6305307,127.0245722,wydq4d2
108000004.0,수유역.강북구청(중),37.6375167,127.0252167,wydq4e8
108000004.0,수유역.강북구청,37.6374887,127.0252317,wydq4e8
108000059.0,강북구청,37.6404566,127.0263693,wydq4s1
108000041.0,광산사거리,37.6437637,127.021837,wydq4ky
108000039.0,수유2동주민센터우이시장,37.644893,127.020202,wydq4mj
108000036.0,북부성모의원,37.646853,127.01746,wydq4m7
113000180.0,월드컵파크7단지,37.5811667,126.8784333,wydjz1q
113000180.0,월드컵파크7단지,37.5811497,126.8784199,wydjz1q
113000196.0,상암DMC입구,37.5834667,126.8826167,wydjz3c
113000196.0,상암DMC입구,37.583431,126.8826124,wydjz3c
113000021.0,DMC첨단산업센터,37.5853167,126.8852167,wydjz64
113000021.0,DMC첨단산업센터,37.5852421,126.8853565,wydjz65
111000003.0,수색교(중),37.5858667,126.8885167,wydjz6m
111000003.0,수색교,37.5857849,126.8884797,wydjz6m
111000005.0,수색역앞(중),37.58325,126.8932667,wydjz9b
111000005.0,수색역앞,37.583223,126.893238,wydjz9b
111000007.0,디지털미디어시티역(중),37.5790667,126.90055,wydjz9n
111000007.0,디지털미디어시티역,37.579005,126.9004947,wydjz9n
112000001.0,북가좌동삼거리(중),37.5755167,126.9045667,wydjzb3
112000001.0,북가좌동삼거리,37.5754463,126.9045265,wydjzb3
112000003.0,DMC래미안e.편한세상요진아파트(중),37.57175,126.9096833,wydjxzs
112000003.0,DMC래미안e.편한세상요진아파트,37.5716775,126.9096099,wydjxzs
112000005.0,모래내시장.가좌역(중),37.5691167,126.9151,wydm8p0
112000005.0,모래내시장.가좌역,37.5690774,126.9150627,wydm8p0
112000007.0,사천교(중),37.5675333,126.9181833,wydm8ng
112000007.0,사천교,37.5675152,126.9181448,wydm8nf
112000027.0,연희104고지앞.구성산회관,37.5662667,126.9240167,wydm8nx
112000027.0,연희104고지앞.구성산회관,37.5661693,126.9239773,wydm8nx
113000135.0,연남동,37.5624833,126.9275,wydm8q1
113000135.0,연남동,37.5625221,126.927541,wydm8q1
113000421.0,동교동삼거리(중),37.5580333,126.9285833,wydm8m4
113000421.0,동교동삼거리,37.558059,126.92854,wydm8m4
113000421.0,동교동삼거리,37.5580596,126.9284587,wydm8m4
113000420.0,신촌오거리.현대백화점(중),37.5554833,126.9356833,wydm8kz
113000420.0,신촌오거리.현대백화점,37.555551,126.935581,wydm8kz
113000420.0,신촌오거리.현대백화점,37.5553966,126.935893,wydm8kz
113000419.0,신촌오거리.2호선신촌역(중),37.5561167,126.9402833,wydm8sg
113000419.0,신촌오거리.2호선신촌역,37.556008,126.939948,wydm8sf
113000419.0,신촌오거리.2호선신촌역,37.5560656,126.9401437,wydm8sf
113000418.0,이대역(중),37.55665,126.9447333,wydm8sy
113000418.0,이대역,37.556621,126.944551,wydm8sy
113000418.0,이대역,37.556613,126.9445938,wydm8sy
113000476.0,웨딩타운(중),37.5570333,126.9511667,wydm8v5
113000476.0,웨딩타운,37.557007,126.950828,wydm8v4
113000476.0,웨딩타운,37.557092,126.951517,wydm8v5
113000477.0,아현역(중),37.5573,126.95495,wydm8vj
113000477.0,아현역,37.557181,126.954455,wydm8vj
113000477.0,아현역,37.5572984,126.9547468,wydm8vj
112000430.0,충정로역(중),37.5611,126.9634833,wydm9jg
112000430.0,충정로역,37.5610582,126.9634916,wydm9jg
101000304.0,서대문역사거리(중),37.5655,126.9664833,wydm9nw
101000304.0,서대문역사거리,37.565579,126.966565,wydm9nw
100000380.0,서울역사박물관.경희궁앞(중),37.5690667,126.9703167,wydm9r0
100000380.0,서울역사박물관.경희궁앞,37.569135,126.97038,wydm9r3
100000384.0,광화문(중),37.5701333,126.97625,wydm9rm
100000384.0,광화문,37.5701354,126.9752507,wydm9rk
100000386.0,종로1가(중),37.5701333,126.9809,wydm9x2
100000386.0,종로1가,37.5701482,126.981066,wydm9x2
100000388.0,종로2가(중),37.5701167,126.9855333,wydm9xk
100000388.0,종로2가,37.5701386,126.9855426,wydm9xk
100000390.0,종로3가.탑골공원(중),37.5702333,126.9895667,wydm9xq
100000390.0,종로3가.탑골공원,37.5702449,126.9895646,wydm9xq
100000392.0,종로4가.종묘(중),37.5705,126.9947167,wydm9zd
100000392.0,종로4가.종묘,37.5705069,126.9947218,wydm9zd
100000394.0,종로5가.광장시장(중),37.57075,126.99885,wydm9zt
100000394.0,종로5가.광장시장,37.5707567,126.9988498,wydm9zt
100000396.0,종로6가.동대문종합시장(중),37.5709833,127.00345,wydmdp9
100000396.0,종로6가.동대문종합시장,37.5709624,127.0034638,wydmdp9
100000398.0,동대문역.흥인지문(중),37.5723167,127.01345,wydmdrb
100000398.0,동대문역.흥인지문,37.5723023,127.0134512,wydmdrb
100000366.0,동묘앞(중),37.5737667,127.0185667,wydmf2h
100000366.0,동묘앞,37.5737786,127.0184085,wydmf25
105000486.0,신설동역(중),37.5761,127.0249167,wydmf88
105000486.0,신설동역,37.57615,127.0250446,wydmf88
105000484.0,용두동사거리(중),37.5775167,127.0299167,wydmf8u
105000484.0,용두동사거리,37.577532,127.0299882,wydmf8u
105000016.0,청량리역환승센터(1번승강장),37.5803333,127.0460167,wydmg12
105000016.0,청량리역환승센타,37.5802508,127.0460771,wydmg12
105000033.0,휘경동입구,37.58765,127.0552167,wydmg4w
105000033.0,휘경동입구,37.5876921,127.0550614,wydmg4w
105000012.0,삼육서울병원(중),37.5899833,127.0620333,wydmg75
105000012.0,삼육서울병원,37.5899572,127.0620677,wydmg75
105000010.0,중랑교(중),37.5914167,127.0669,wydmg7r
105000010.0,중랑교,37.5913657,127.0669234,wydmg7r
106000006.0,중랑역.동부시장(중),37.5936167,127.0751,wydmget
106000006.0,중랑역.동부시장,37.5935865,127.075097,wydmget
106000004.0,상봉역.중랑우체국(중),37.5956167,127.0828833,wydmgu4
106000004.0,상봉역.중랑우체국,37.5956652,127.0828597,wydmgu4
106000002.0,망우역.상봉터미널(중),37.5975167,127.09035,wydmuh2
106000002.0,망우역.상봉터미널,37.5975072,127.0903499,wydmuh2
106000435.0,망우역.망우지구대(중),37.59855,127.09485,wydmuhe
106000435.0,망우역.망우지구대,37.598558,127.094871,wydmuhe
106000432.0,우림시장.망우사거리(중),37.5992333,127.0979167,wydmuht
106000432.0,우림시장.망우사거리,37.5992996,127.0979162,wydmuht
106000430.0,금란교회(중),37.6003167,127.1032,wydmukc
106000430.0,금란교회,37.600364,127.1033574,wydmukc
106000429.0,동부제일병원.망우리공원(중),37.6004333,127.10765,wydmuku
106000429.0,동부제일병원.망우리공원,37.600478,127.107756,wydmukv
106000324.0,해모로아파트앞,37.6018793,127.1114253,wydmump
106000320.0,서울특별시북부병원,37.605022,127.108843,wydmumv
106000321.0,양원역,37.6062415,127.1075242,wydmuqh
106000235.0,양원역입구,37.6055398,127.1061947,wydmumg
106000233.0,경남아파트,37.603826,127.107113,wydmums
106000231.0,망우금호어울림아파트,37.6020564,127.1080482,wydmumj
106000049.0,망우동고개,37.6007,127.10735,wydmuku
106000049.0,망우동고개,37.6006722,127.1071447,wydmuku
106000431.0,금란교회,37.6005,127.1039333,wydmukf
106000431.0,금란교회,37.6005297,127.1040333,wydmukf
106000433.0,우림시장.망우사거리(중),37.5995333,127.09875,wydmuhy
106000433.0,우림시장.망우사거리,37.599629,127.0990535,wydmuhy
106000434.0,망우역.망우지구대,37.5988667,127.0956,wydmuhs
106000434.0,망우역.망우지구대,37.5988214,127.0955656,wydmuhs
106000001.0,망우역.상봉터미널(중),37.5978333,127.0911167,wydmuh2
106000001.0,망우역.상봉터미널,37.5978283,127.0911385,wydmuh2
106000003.0,상봉역.중랑우체국(중),37.59595,127.08375,wydmgu5
106000003.0,상봉역.중랑우체국,37.595959,127.0837435,wydmgu5
106000005.0,중랑역.동부시장(중),37.5940167,127.0761333,wydmgey
106000005.0,중랑역.동부시장,37.5939832,127.0761664,wydmgey
105000009.0,중랑교(중),37.5917333,127.0676833,wydmg7r
105000009.0,중랑교,37.5916996,127.0677039,wydmg7r
105000011.0,삼육서울병원(중),37.5897,127.0606667,wydmg6f
105000011.0,삼육서울병원,37.5896516,127.0606916,wydmg6f
105000013.0,시조사삼거리(중),37.5886333,127.0570167,wydmg6b
105000013.0,시조사삼거리,37.588707,127.056888,wydmg6b
105000478.0,청량리미주아파트.동대문세무서(중),37.5828,127.0484333,wydmg19
105000478.0,청량리미주아파트.동대문세무서,37.58278,127.048395,wydmg19
105000015.0,청량리역환승센터(4번승강장),37.5804333,127.0454167,wydmfcr
105000015.0,청량리역환승센타,37.5804025,127.0454307,wydmfcr
105000480.0,청량리.청과물도매시장(중),37.5788,127.0406167,wydmfch
105000480.0,청량리.청과물도매시장,37.5787822,127.0407118,wydmfch
105000481.0,제기동역.서울약령시장(중),37.5782167,127.0353833,wydmfbb
105000481.0,제기동역.서울약령시,37.5781955,127.0353335,wydmfbb
105000483.0,용두동사거리.한국의류시험연구원(중),37.5771833,127.0283167,wydmf8e
105000483.0,용두동사거리.한국의류시험연구원,37.5771458,127.0283882,wydmf8e
105000485.0,신설동역(중),37.5759,127.0238833,wydmf2r
105000485.0,신설동역,37.5758267,127.0238433,wydmf2r
100000367.0,동묘앞(중),37.5742167,127.0195333,wydmf2h
100000367.0,동묘앞,37.5742434,127.019672,wydmf2h
100000365.0,동대문.흥인지문(중),37.5721,127.0124833,wydmdpz
100000365.0,동대문(흥인지문),37.5719529,127.0120461,wydmdpz
100000397.0,종로6가.동대문종합시장(중),37.5711667,127.0057,wydmdpd
100000397.0,종로6가.동대문종합시장,37.5711272,127.0057137,wydmdpd
100000395.0,종로5가.광장시장(중),37.5709167,126.9993167,wydm9zw
100000395.0,종로5가.광장시장,37.5708806,126.9993346,wydm9zw
100000393.0,종로4가.종묘(중),37.5706667,126.9952833,wydm9ze
100000393.0,종로4가.종묘,37.5706271,126.9952838,wydm9ze
100000391.0,종로3가.탑골공원(중),37.5703667,126.9899833,wydm9xr
100000391.0,종로3가.탑골공원,37.5703605,126.9899877,wydm9xr
100000389.0,종로2가,37.57025,126.9862333,wydm9xk
100000389.0,종로2가,37.5702571,126.9862474,wydm9xk
100000387.0,종로1가(중),37.57025,126.9813833,wydm9x3
100000387.0,종로1가,37.570229,126.9813906,wydm9x3
100000385.0,광화문(중),37.57025,126.9777667,wydm9rq
100000385.0,광화문,37.5702168,126.9780854,wydm9rq
100000379.0,서울역사박물관.경희궁앞,37.569412,126.970609,wydm9r3
101000305.0,서대문역사거리(중),37.5661833,126.9668833,wydm9nw
101000305.0,서대문역사거리,37.566137,126.966893,wydm9nw
112000429.0,충정로역(중),37.56005,126.9627,wydm9je
112000429.0,충정로역,37.5600226,126.9626986,wydm9je
113000478.0,아현역(중),37.5574167,126.95675,wydm8vp
113000478.0,아현역,37.557525,126.957086,wydm8vp
113000478.0,아현역,37.557425,126.956593,wydm8vn
113000475.0,웨딩타운(중),37.55725,126.95265,wydm8vh
113000475.0,웨딩타운,37.557278,126.95267,wydm8vh
113000475.0,웨딩타운,37.557227,126.952408,wydm8v5
113000411.0,이대역(중),37.5568833,126.9472,wydm8v0
113000411.0,이대역,37.556935,126.947109,wydm8v0
113000411.0,이대역,37.5568755,126.9472705,wydm8v0
113000417.0,신촌오거리.2호선신촌역(중),37.5557,126.9386333,wydm8sc
113000417.0,신촌오거리.2호선신촌역,37.555732,126.938536,wydm8sc
113000417.0,신촌오거리.2호선신촌역,37.5557884,126.9389815,wydm8sf
113000416.0,신촌오거리.현대백화점(중),37.556,126.9344667,wydm8ky
113000416.0,신촌오거리.현대백화점,37.556002,126.934711,wydm8kz
113000416.0,신촌오거리.현대백화점,37.5559833,126.9345037,wydm8ky
113000415.0,동교동삼거리(중),37.5578167,126.9294,wydm8m5
113000415.0,동교동삼거리,37.557796,126.929638,wydm8m5
113000415.0,동교동삼거리,37.5577646,126.9295196,wydm8m5
112000064.0,연희동대우아파트,37.56265,126.9279333,wydm8q4
112000064.0,연희동대우아파트,37.5626233,126.9279552,wydm8q4
112000028.0,연희104고지앞.구성산회관,37.5665333,126.9249833,wydm8nz
112000028.0,연희104고지앞.구성산회관,37.56655,126.924998,wydm8nz
112000026.0,사천교,37.5680833,126.9175667,wydm8p4
112000026.0,사천교,37.568082,126.9175934,wydm8p4
112000006.0,모래내시장.가좌역(중),37.56985,126.9138167,wydjxzr
112000006.0,모래내시장.가좌역,37.569862,126.913786,wydjxzr
112000004.0,DMC래미안e.편한세상요진아파트(중),37.5715167,126.9102667,wydjxzt
112000004.0,DMC래미안e.편한세상요진아파트,37.571577,126.910313,wydjxzt
112000002.0,북가좌동삼거리(중),37.57515,126.9051,wydjzb3
112000002.0,북가좌동삼거리,37.575143,126.905143,wydjzb3
111000008.0,디지털미디어시티역(중),37.5785333,126.9013667,wydjz8y
111000008.0,디지털미디어시티역,37.5785084,126.9014362,wydjz8y
111000006.0,수색역앞(중),37.583,126.89405,wydjz9c
111000006.0,수색역앞,37.583047,126.894103,wydjz9c
111000004.0,수색교(중),37.5854,126.8892,wydjz6j
111000004.0,수색교,37.5848769,126.8898192,wydjz6n
113000022.0,DMC첨단산업센터,37.5855167,126.8848,wydjz64
113000022.0,DMC첨단산업센터,37.585598,126.884787,wydjz64
113000181.0,월드컵파크7단지,37.5819667,126.8791833,wydjz1w
113000181.0,월드컵파크7단지,37.581876,126.878963,wydjz1w
106000101.0,용마문화복지센터,37.5863676,127.0953481,wydmu4k
106000100.0,서일대학교,37.5890787,127.0968044,wydmu4v
106000097.0,명일초등학교,37.5918167,127.09825,wydmu5q
106000097.0,면일초등학교,37.5917862,127.0982687,wydmu5q
106000095.0,용마공원입구,37.5938167,127.09935,wydmu5w
106000095.0,용마공원입구,37.5937857,127.0993607,wydmu5w
106000071.0,우림시장,37.5955034,127.099149,wydmuhn
106000069.0,봉우재고개,37.595112,127.0973048,wydmu5v
106000067.0,혜원여중고입구,37.5946838,127.0953565,wydmu5u
106000065.0,상봉터미널입구,37.5942915,127.093501,wydmu5f
106000063.0,상봉신협,37.5936531,127.0905684,wydmu58
106000061.0,면목6거리,37.5929402,127.0872031,wydmggw
106000059.0,서울창업카페상봉점,37.59224,127.083713,wydmgg7
106000057.0,금성시장,37.591663,127.0812995,wydmgg3
106000055.0,동부시장남문입구,37.5907703,127.0782592,wydmgep
106000053.0,중랑초등학교,37.5894897,127.0743863,wydmgdu
106000051.0,서울우유앞,37.5914485,127.0731675,wydmge7
113000506.0,홍대입구역(가상),37.558628,126.926058,wydm8m2
113000414.0,홍대입구역(중),37.5573833,126.9244,wydm8jp
113000414.0,홍대입구역,37.557511,126.924573,wydm8jp
113000414.0,홍대입구역,37.5574769,126.9245894,wydm8jp
113000413.0,서교동(중),37.5541833,126.9201,wydm8hs
113000413.0,서교동,37.554383,126.920288,wydm8hs
113000413.0,서교동,37.554249,126.9202362,wydm8hs
113000128.0,합정역,37.5511333,126.9157167,wydm85c
113000128.0,합정역,37.5510604,126.9156095,wydm85c
113000153.0,메세나폴리스,37.5508,126.91295,wydjxgz
113000153.0,메세나폴리스,37.5507674,126.9129433,wydjxgz
113000156.0,성산초등학교입구,37.5532,126.9122833,wydjxuq
113000156.0,성산초등학교입구,37.553218,126.912262,wydjxuq
113000157.0,기업은행서교동지점(최규하대통령가옥),37.5548333,126.9114667,wydjxuw
113000157.0,기업은행서교동지점(최규하대통령가옥),37.5547915,126.9114638,wydjxuw
113000160.0,망원시장.망원동월드컵시장입구,37.5576167,126.90895,wydjxvh
113000160.0,망원시장.망원동월드컵시장입구,37.5575911,126.9089432,wydjxvh
113000161.0,마포구청역입구,37.5604167,126.9062667,wydjxvd
113000161.0,마포구청역입구,37.5604275,126.9063646,wydjxvd
113000011.0,마포구청.성산자동차검사소,37.5649,126.9023,wydjxwr
113000011.0,마포구청.성산자동차검사소,37.5649538,126.9024231,wydjxwr
113000014.0,월드컵경기장남측.월드컵공원,37.56675,126.8961833,wydjxwf
113000014.0,월드컵경기장남측.월드컵공원,37.5667212,126.8961844,wydjxwf
113000025.0,월드컵공원입구.문화비축기지입구,37.5684833,126.8927,wydjxx0
113000025.0,월드컵공원입구.문화비축기지입구,37.568523,126.892748,wydjxx0
113000198.0,월드컵파크3단지후문,37.5712167,126.8897,wydjxrw
113000198.0,월드컵파크3단지후문,37.571242,126.889762,wydjxrw
113000026.0,월드컵파크3단지정문,37.5736,126.88895,wydjz2j
113000026.0,월드컵파크3단지정문,37.573822,126.889228,wydjz2j
113000027.0,월드컵파크2단지.에스플렉스센터,37.5752667,126.8906333,wydjz2q
113000027.0,월드컵파크2단지.에스플렉스센터,37.575267,126.890647,wydjz2q
113000192.0,상암DMC홍보관.YTN,37.5779833,126.8913167,wydjz2z
113000192.0,상암DMC홍보관.YTN,37.577985,126.891323,wydjz2z
113000204.0,누리꿈스퀘어.MBC,37.5789833,126.8896333,wydjz3n
113000204.0,누리꿈스퀘어.MBC,37.578988,126.889637,wydjz3n
113000194.0,월드컵파크5단지.상암중고등학교입구,37.58105,126.88615,wydjz37
113000194.0,월드컵파크5단지.상암중고등학교입구,37.580921,126.886335,wydjz37
113000432.0,월드컵파크9.10.11.12단지,37.5843667,126.87995,wydjz4p
113000432.0,월드컵파크9.10.11.12단지,37.5844275,126.8798243,wydjz4p
113000197.0,상암고등학교,37.5818167,126.88405,wydjz3d
113000197.0,상암고등학교,37.5817798,126.8840462,wydjz3d
113000195.0,월드컵파크5단지,37.5803667,126.8865167,wydjz37
113000195.0,월드컵파크5단지,37.5803332,126.8865178,wydjz37
113000193.0,상암DMC홍보관.YTN,37.5775333,126.8913,wydjz2z
113000193.0,상암DMC홍보관.YTN,37.5774605,126.8912875,wydjz2z
113000028.0,월드컵파크2단지.에스플렉스센터,37.5753667,126.8902833,wydjz2q
113000028.0,월드컵파크2단지.에스플렉스센터,37.5753384,126.8902909,wydjz2q
113000018.0,월드컵파크3단지.난지천공원,37.5725833,126.8881667,wydjxrv
113000018.0,월드컵파크3단지.난지천공원,37.5725268,126.8881293,wydjxrv
113000410.0,월드컵공원입구.문화비축기지입구,37.5681,126.8925667,wydjxx0
113000410.0,월드컵공원입구.문화비축기지입구,37.568177,126.892749,wydjxx0
113000013.0,마포농수산물시장.월드컵공원,37.5660667,126.8974,wydjxwe
113000013.0,마포농수산물시장.월드컵공원,37.5661423,126.8967727,wydjxwe
113000012.0,마포구청,37.5649333,126.9018,wydjxwr
113000012.0,마포구청,37.5649023,126.9018904,wydjxwr
113000162.0,마포구청역입구,37.5606167,126.9057167,wydjxv9
113000162.0,마포구청역입구,37.5605946,126.9057249,wydjxv9
113000159.0,망원시장.망원동월드컵시장입구,37.55755,126.9084833,wydjxv5
113000159.0,망원시장.망원동월드컵시장입구,37.5575205,126.9085177,wydjxv5
113000158.0,기업은행서교동지점(최규하대통령가옥),37.5549,126.9109,wydjxut
113000158.0,기업은행서교동지점(최규하대통령가옥),37.5548695,126.9108956,wydjxut
113000155.0,성산초등학교입구,37.5531667,126.91185,wydjxuq
113000155.0,성산초등학교입구,37.5531302,126.9118676,wydjxuq
113000154.0,마포한강푸르지오,37.5507833,126.9125667,wydjxgy
113000154.0,마포한강푸르지오,37.550787,126.912592,wydjxgy
113000129.0,합정역,37.5501833,126.9151333,wydm85b
113000129.0,합정역,37.550023,126.914946,wydm85b
113000129.0,합정역,37.5502177,126.9153071,wydm85b
113000423.0,서교동(중),37.55365,126.9195333,wydm8h7
113000423.0,서교동,37.553533,126.919467,wydm8h7
113000423.0,서교동,37.5536367,126.9195815,wydm8hk
113000505.0,홍대입구역(가상),37.555314,126.921733,wydm8ht
113000422.0,홍대입구역(중),37.5565833,126.9234833,wydm8hy
113000422.0,홍대입구역,37.556724,126.923743,wydm8hz
113000422.0,홍대입구역,37.5563734,126.9231959,wydm8hy
105000446.0,청량리역환승센터(3번승강장),37.5805,127.0458,wydmfcr
105000446.0,청량리역환승센터,37.580406,127.0457024,wydmfcr
106000050.0,서울우유앞,37.592108,127.072817,wydmge7
106000052.0,중랑초등학교,37.58932,127.074318,wydmgdu
106000054.0,동부시장남문입구,37.5903014,127.0774174,wydmgen
106000056.0,88병원,37.5913119,127.080896,wydmgg3
106000058.0,서울창업카페상봉점,37.592028,127.083885,wydmgg7
106000060.0,면목6거리,37.5928667,127.0877333,wydmggw
106000060.0,면목6거리,37.5928074,127.0876774,wydmggw
106000062.0,상봉신협,37.5933652,127.0899024,wydmu58
106000064.0,상봉터미널입구,37.59388,127.092532,wydmu5c
106000066.0,혜원여중고입구,37.594427,127.09505,wydmu5g
106000068.0,봉우재고개,37.595025,127.097837,wydmu5v
106000070.0,우림시장,37.595398,127.09954,wydmuhp
106000096.0,용마공원입구,37.59435,127.0993333,wydmu5y
106000096.0,용마공원입구,37.594253,127.099292,wydmu5y
106000098.0,우리은행망우동지점,37.5913333,127.0976833,wydmu5m
106000098.0,우리은행망우동지점,37.591217,127.097627,wydmu5m
106000099.0,서일대학교,37.58951,127.0967,wydmu4u
106000102.0,용마문화복지센터,37.586712,127.095167,wydmu47
117000084.0,석수역,37.4355241,126.9033111,wydhzyb
117000083.0,시흥3동주민센터앞,37.440167,126.9036271,wydhzzb
117000081.0,박미마을,37.4431667,126.9039833,wydjpb2
117000081.0,박미마을.금천고등학교,37.443212,126.9039638,wydjpb2
117000079.0,금천폭포공원.천주교시흥성당,37.4477667,126.9035167,wydjpc0
117000079.0,금천폭포공원.천주교시흥성당,37.4477127,126.903517,wydjpc0
117000086.0,백산초등학교,37.4486667,126.9042333,wydjpc2
117000086.0,백산초등학교,37.4486234,126.904229,wydjpc2
117000088.0,은행나무입구사거리,37.4513833,126.9060667,wydjpcf
117000088.0,은행나무입구사거리,37.4513327,126.9060589,wydjpcf
117000089.0,(구)태풍약국,37.4536667,126.9062667,wydjpf4
117000089.0,경남아파트,37.4536154,126.9062606,wydjpf4
117000091.0,시흥초등학교,37.4554,126.90595,wydjpfd
117000091.0,시흥초등학교.금천구보훈회관,37.4553525,126.9059442,wydjpfd
117000093.0,동산교회앞,37.4570667,126.9056167,wydjpfc
117000093.0,동산교회앞,37.4570265,126.9056143,wydjpfc
117000095.0,현대시장.시흥4동주민센터,37.4592833,126.9051667,wydjpg3
117000095.0,현대시장.시흥4동주민센터,37.4592401,126.9051695,wydjpg1
117000097.0,남부여성발전센타,37.4625,126.90435,wydjpgb
117000097.0,남부여성발전센터,37.4624573,126.9043527,wydjpgb
117000099.0,독산동정훈단지,37.4645,126.903,wydjpsp
117000099.0,독산동정훈단지,37.4644522,126.903006,wydjpsp
117000102.0,독산4동주민센터,37.4673833,126.9019833,wydjpsx
117000102.0,독산4동주민센터,37.4673457,126.9019814,wydjpsx
117000104.0,독산동성당앞,37.46975,126.90275,wydjptp
117000104.0,독산동성당앞,37.4697072,126.9027437,wydjptp
117000106.0,독산동쌈지공원,37.4712167,126.9031833,wydjpv2
117000106.0,독산동쌈지공원,37.4711737,126.9031805,wydjpv2
117000141.0,독산동남문시장,37.4734,126.9034167,wydjpvb
117000141.0,독산동남문시장,37.4733474,126.9034139,wydjpvb
117000108.0,독산3동주민센터,37.4758667,126.90365,wydjpy2
117000108.0,독산3동주민센터,37.4758229,126.9036414,wydjpy2
117000110.0,모두의학교.금천문화예술정보학교,37.4787,126.9039333,wydjpyb
117000110.0,모두의학교.금천문화예술정보학교,37.4786589,126.9039351,wydjpyb
120000001.0,구로디지털단지역(중),37.4841333,126.9025333,wydjpxz
120000001.0,구로디지털단지역,37.4839345,126.9024471,wydjpxx
119000001.0,동작상떼빌아파트(중),37.4864167,126.9044167,wydjrb0
119000001.0,동작상떼빌아파트,37.486449,126.904448,wydjrb0
118000175.0,대림동우체국,37.4894833,126.90545,wydjrbc
118000175.0,대림동우체국,37.4894382,126.9054525,wydjrb9
118000176.0,흰돌교회,37.49135,126.9029,wydjr9p
118000176.0,흰돌교회,37.4909422,126.9032194,wydjrc0
118000177.0,대동초등학교,37.4940333,126.9007333,wydjr9w
118000177.0,대동초등학교,37.4939967,126.9007387,wydjr9w
118000206.0,대림3동주민센터,37.4976454,126.8988667,wydjrdh
118000239.0,국민은행,37.500805,126.898722,wydjrdu
118000531.0,신길건영아파트,37.503563,126.9020517,wydjrer
118000492.0,대영고등학교.신길센트럴아이파크,37.5048502,126.90482,wydjrg9
118000535.0,신풍시장,37.5057447,126.9101667,wydjrgt
118000595.0,신길가마산로교차로,37.5065149,126.9111162,wydjrgv
118000153.0,우신초등학교,37.5093,126.9109333,wydjrum
118000153.0,우신초등학교,37.5092523,126.9109396,wydjrum
118000155.0,영등포농협.신길2동새마을금고,37.5109333,126.9122333,wydjruw
118000155.0,신길동홍어거리,37.5107942,126.9115715,wydjruw
118000143.0,대신시장,37.5117667,126.9164667,wydm2hc
118000143.0,대신시장,37.5117299,126.9164648,wydm2hc
118000141.0,신길새마을금고,37.5136333,126.9202167,wydm2jh
118000141.0,신길새마을금고,37.5136409,126.9200351,wydm2jh
118000015.0,대방역(중),37.5126333,126.9247667,wydm2hz
118000015.0,대방역,37.5126573,126.9248245,wydm2hz
119000007.0,현대아파트(중),37.5131333,126.9313833,wydm2mh
119000007.0,현대아파트,37.513174,126.931437,wydm2mh
119000009.0,노량진수산시장.CTS기독교TV(중),37.5134167,126.93845,wydm2t1
119000009.0,노량진수산시장.CTS기독교TV,37.513423,126.938456,wydm2t1
119000011.0,노량진역(중),37.5137333,126.9438,wydm2tj
119000011.0,노량진역,37.513733,126.943811,wydm2tj
119000013.0,노들역(중),37.5128333,126.94925,wydm2v1
119000013.0,노들역,37.512825,126.949256,wydm2v1
102000248.0,노들섬,37.5180667,126.9595167,wydm3jc
102000248.0,노들섬,37.5173638,126.9590376,wydm3jb
102000001.0,한강대교북단.LG유플러스(중),37.5241333,126.9631833,wydm3p5
102000001.0,한강대교북단.LG유플러스,37.5240898,126.9631917,wydm3p5
102000003.0,신용산역(중),37.5272833,126.9662,wydm3pt
102000003.0,신용산역,37.527293,126.966207,wydm3pt
102000005.0,KT용산지사(중),37.5315333,126.9702333,wydm922
102000005.0,용산우체국,37.531497,126.970235,wydm922
102000007.0,삼각지역(중),37.5353,126.974,wydm935
102000007.0,삼각지역,37.5352698,126.9740117,wydm935
102000009.0,숙대입구역(중),37.5433333,126.9725333,wydm96d
102000009.0,숙대입구역,37.5432956,126.9725377,wydm96d
102000011.0,갈월동(중),37.5510167,126.9722333,wydm97f
102000011.0,갈월동,37.5509755,126.9722373,wydm97f
101000263.0,서울스퀘어앞,37.5553833,126.9732667,wydm9ke
101000263.0,서울스퀘어앞,37.5553416,126.9732317,wydm9ke
101000047.0,남대문시장.회현역,37.5578167,126.9777167,wydm9mn
101000047.0,남대문시장.회현역,37.558492,126.9784645,wydm9mq
101000050.0,명동입구,37.5606538,126.9852407,wydm9te
101000053.0,퇴계로3가.한옥마을.한국의집,37.5609706,126.9921714,wydm9vb
101000054.0,충무로역2번출구.대한극장앞,37.5612232,126.9949175,wydm9vf
101000103.0,퇴계로5가,37.5623804,126.999966,wydm9yn
101000101.0,퇴계로6가,37.5634011,127.0039011,wydmdn1
101000072.0,광희동,37.5649951,127.0079579,wydmdnk
101000130.0,동대문역사문화공원,37.5654833,127.0091167,wydmdnt
101000130.0,동대문역사문화공원,37.5654113,127.0091092,wydmdnt
101000165.0,광희문.광희동사거리,37.5645499,127.008611,wydmdnk
101000102.0,퇴계로6가,37.5635738,127.0033399,wydmdn1
101000104.0,퇴계로5가,37.5627804,126.9997252,wydm9yn
101000055.0,충무로역8번출구.대한극장앞,37.5620371,126.9964921,wydm9vu
101000052.0,퇴계로3가.한옥마을.한국의집,37.5612508,126.9917771,wydm9vb
101000051.0,퇴계로2가.명동역,37.5608934,126.9844913,wydm9tg
101000032.0,북창동.남대문시장,37.5612,126.9781833,wydm9my
101000032.0,북창동.남대문시장,37.561175,126.97792,wydm9my
101000329.0,숭례문(경유),37.5598,126.9744667,wydm9me
101000008.0,숭례문(중),37.5584667,126.9736833,wydm9m7
101000008.0,숭례문,37.5586388,126.9737783,wydm9m7
101000004.0,서울역버스환승센터,37.5555167,126.9725,wydm9kf
101000004.0,서울역버스환승센터,37.5554462,126.9723557,wydm9kf
102000012.0,갈월동(중),37.5495667,126.9717,wydm979
102000012.0,갈월동,37.5495337,126.9717081,wydm979
102000010.0,숙대입구역(중),37.5438,126.9722333,wydm96d
102000010.0,숙대입구역,37.543756,126.972232,wydm96d
102000008.0,삼각지역(중),37.5360167,126.97415,wydm935
102000008.0,삼각지역,37.5359845,126.9741608,wydm935
102000006.0,KT용산지사(중),37.5320833,126.9705667,wydm929
102000006.0,용산우체국,37.5320503,126.970564,wydm929
102000004.0,신용산역(중),37.5279667,126.9666167,wydm3py
102000004.0,신용산역,37.5279204,126.9666192,wydm3pw
102000002.0,한강대교북단.LG유플러스(중),37.52435,126.9631833,wydm3p5
102000002.0,한강대교북단.LG유플러스,37.524306,126.9631848,wydm3p5
102000247.0,노들섬,37.51815,126.9589667,wydm3jb
102000247.0,노들섬,37.5176712,126.9585926,wydm3jb
119000014.0,노들역(중),37.5127667,126.9509667,wydm2uf
119000014.0,노들역,37.5127342,126.9509621,wydm2uf
119000012.0,노량진역(중),37.5138667,126.9447167,wydm2tn
119000012.0,노량진역,37.5138325,126.9447114,wydm2tn
119000010.0,노량진수산시장.CTS기독교TV(중),37.5135167,126.9388667,wydm2t4
119000010.0,노량진수산시장.CTS기독교TV,37.51348,126.9388655,wydm2t4
119000008.0,현대아파트.유한양행(중),37.51325,126.9323333,wydm2mj
119000008.0,현대아파트.유한양행,37.5132368,126.9323737,wydm2mj
118000169.0,대방역,37.5130048,126.9242224,wydm2jp
118000145.0,대신시장,37.5120833,126.9162,wydm2hc
118000145.0,대신시장,37.5120379,126.9161953,wydm2hc
118000146.0,영등포농협.신길2동새마을금고,37.5114667,126.9134333,wydjruz
118000146.0,영등포농협.신길2동새마을금고,37.5114267,126.9134268,wydjrux
118000147.0,우신초등학교,37.50935,126.9106,wydjrum
118000147.0,우신초등학교,37.5093088,126.9106002,wydjrum
118000209.0,사러가쇼핑센타,37.50655,126.9109167,wydjrgv
118000209.0,신길가마산로교차로,37.5065337,126.9108716,wydjrgv
118000298.0,코끼리유통,37.5059175,126.9068252,wydjrgd
118000299.0,성락교회,37.504783,126.904153,wydjrg8
118000532.0,신길건영아파트,37.5039003,126.9019651,wydjrer
118000534.0,수정교회,37.500826,126.8984473,wydjrdu
118000533.0,대림3동주민센터,37.4981672,126.89831,wydjrdk
118000181.0,대동초등학교,37.4937,126.9006667,wydjr9w
118000181.0,대동초등학교,37.4936614,126.9006611,wydjr9w
118000182.0,흰돌교회,37.4906167,126.9032833,wydjrbb
118000182.0,흰돌교회,37.490543,126.9032572,wydjrbb
118000183.0,대림동우체국,37.4897,126.90475,wydjrbc
118000183.0,대림동우체국,37.4896278,126.9047297,wydjrbc
118000009.0,서울영림초등학교(중),37.4871333,126.9049,wydjrb3
118000009.0,서울영림초등학교,37.4870299,126.9046945,wydjrb3
116000013.0,구로디지털단지역(중),37.4830667,126.90155,wydjpxw
116000013.0,구로디지털단지역,37.4830994,126.9015481,wydjpxw
117000109.0,모두의학교.금천문화예술정보학교,37.4788833,126.9037,wydjpyb
117000109.0,모두의학교.금천문화예술정보학교,37.4788389,126.9036963,wydjpyb
117000107.0,독산3동주민센터,37.4753667,126.90335,wydjpy0
117000107.0,독산3동주민센터,37.475327,126.9033549,wydjpy0
117000140.0,독산동남문시장,37.47355,126.9031667,wydjpvb
117000140.0,독산동남문시장,37.473513,126.9031707,wydjpvb
117000105.0,독산동쌈지공원,37.4713167,126.90295,wydjptr
117000105.0,독산동쌈지공원,37.4712654,126.9029463,wydjptr
117000103.0,독산동성당앞,37.4689667,126.9022333,wydjptp
117000103.0,독산동성당앞,37.4689156,126.9022258,wydjptp
117000098.0,독산동정훈단지,37.4654833,126.9020667,wydjpsr
117000098.0,독산동정훈단지,37.4654381,126.9020698,wydjpsr
117000096.0,남부여성발전센타,37.46235,126.90415,wydjpgb
117000096.0,남부여성발전센터,37.4623022,126.9041539,wydjpgb
117000094.0,현대시장.시흥4동주민센터,37.45965,126.9048333,wydjpg3
117000094.0,현대시장.시흥4동주민센터,37.4596021,126.9048243,wydjpg3
117000092.0,동산교회앞,37.4574,126.9052833,wydjpfc
117000092.0,동산교회앞,37.457347,126.9052838,wydjpfc
117000090.0,시흥초등학교,37.4546,126.9058667,wydjpf6
117000090.0,시흥초등학교.금천구보훈회관,37.4545675,126.9058231,wydjpf6
117000087.0,은행나무입구사거리,37.4511333,126.9058167,wydjpcc
117000087.0,은행나무입구사거리,37.4511117,126.9057879,wydjpcc
117000085.0,백산초등학교,37.4488167,126.9039833,wydjpc2
117000085.0,백산초등학교,37.4487629,126.9039779,wydjpc2
117000078.0,남서울힐스테이트.국립전통예술고,37.4467667,126.9032833,wydjpbb
117000078.0,남서울힐스테이트.국립전통예술고,37.4467258,126.903282,wydjpbb
117000080.0,박미마을,37.4415002,126.903178,wydjpb0
117000082.0,기아대교,37.4394878,126.9029828,wydhzxx
115000321.0,개화역광역환승센터,37.5782167,126.7981667,wydjv2g
115000321.0,개화역광역환승센터,37.57822,126.797978,wydjv2g
115000073.0,개화역1번출구.개화검문소,37.57855,126.7998333,wydjv2u
115000073.0,개화검문소,37.578416,126.799976,wydjv2u
115000073.0,개화역1번출구.개화검문소,37.5784942,126.7997884,wydjv2u
115000071.0,개화119안전센터,37.5750667,126.8022167,wydjv2q
115000071.0,개화2치안센터,37.575104,126.802196,wydjv2q
115000071.0,개화119안전센터,37.575128,126.802225,wydjv2q
115000282.0,김포공항국제선(4번홈),37.5652167,126.8012833,wydjtqt
115000282.0,김포공항국제선,37.56531,126.801112,wydjtqt
115000297.0,한국공항공사,37.5625333,126.7989333,wydjtqh
115000297.0,한국공항공사,37.562496,126.798807,wydjtqh
115000297.0,한국공항공사,37.562433,126.798872,wydjtqh
115000280.0,김포공항국내선(6번홈),37.5588667,126.8040667,wydjtmr
115000280.0,김포공항국내선,37.5588334,126.8041241,wydjtmr
115000634.0,송정역(중),37.5614333,126.8095833,wydjttg
115000634.0,송정역,37.561455,126.809614,wydjttg
115000634.0,송정역,37.5613708,126.8095961,wydjttg
115000635.0,공항중학교.마곡엠밸리9.10단지(중),37.5607667,126.8157,wydjtv8
115000635.0,공항중학교.마곡엠밸리9 10단지,37.5607246,126.8158007,wydjtv8
115000947.0,강서세무서(중),37.5601833,126.8212667,wydjtvs
115000947.0,강서세무서,37.5602555,126.8212942,wydjtvs
115000896.0,마곡역(중),37.5596833,126.8260333,wydjtvx
115000896.0,마곡역,37.5597895,126.8260719,wydjtvx
115000922.0,마곡동로사거리(중),37.5591333,126.8316667,wydjwjk
115000922.0,마곡동로사거리,37.5592024,126.8318218,wydjwjk
115000893.0,발산역(중),37.55855,126.8376,wydjwm2
115000893.0,발산역,37.5585733,126.8376109,wydjwm2
115000593.0,한국가스기술공사(중),37.5579833,126.84315,wydjwmh
115000593.0,한국가스기술공사,37.557872,126.843257,wydjwmh
115000591.0,KBS스포츠월드(중),37.5569,126.8492167,wydjwt0
115000591.0,KBS스포츠월드,37.5569118,126.8492332,wydjwt0
115000589.0,강서구청사거리.서울디지털대학교(중),37.5549833,126.8547667,wydjwss
115000589.0,강서구청사거리.서울디지털대학교,37.5552355,126.8540843,wydjwss
115000006.0,등촌중학교.백석초등학교(중),37.5529,126.8605333,wydjwu3
115000006.0,등촌중학교.백석초등학교,37.5528653,126.8605244,wydjwu3
115000004.0,등촌역.강서보건소(중),37.54945,126.8676,wydjwgw
115000004.0,등촌역.강서보건소,37.5494106,126.8675998,wydjwgw
115000002.0,염창역.서울도시가스(중),37.5469,126.8750167,wydjx55
115000002.0,염창역.서울도시가스,37.5469638,126.8750052,wydjx55
118000132.0,안양천입구,37.5469333,126.8844,wydjx74
118000132.0,안양천입구,37.5473061,126.8836668,wydjx73
113000104.0,마포구청역,37.5622833,126.9022333,wydjxwp
113000104.0,마포구청역,37.5622453,126.9022262,wydjxtz
113000105.0,마포중앙도서관,37.5637167,126.9067333,wydjxy6
113000105.0,마포중앙도서관,37.5636762,126.9067285,wydjxy6
113000107.0,성산2교,37.5655333,126.9132333,wydjxyx
113000107.0,성산2교,37.5654951,126.9132318,wydjxyx
112000008.0,연희104고지앞.구성산회관(중),37.5663167,126.9253,wydm8q8
112000008.0,연희104고지앞.구성산회관,37.5662421,126.925073,wydm8q8
112000010.0,서대문우체국(중),37.56185,126.9320833,wydm8mv
112000010.0,서대문우체국,37.5617697,126.9320446,wydm8mv
112000012.0,연세대앞(중),37.5599667,126.9353333,wydm8mx
112000012.0,연세대앞,37.5599353,126.9357001,wydm8mx
112000014.0,세브란스병원앞(중),37.5600333,126.9386,wydm8t9
112000014.0,세브란스병원앞,37.5599674,126.9384506,wydm8t9
112000016.0,이대후문(중),37.5627167,126.9433333,wydm8wj
112000016.0,이대후문,37.5626001,126.9433012,wydm8wj
100000033.0,사직단,37.5748833,126.9681833,wydmc0r
100000033.0,사직단,37.5748553,126.9681889,wydmc0r
100000032.0,서울경찰청.경복궁역,37.5758167,126.9714833,wydmc23
100000032.0,서울경찰청.경복궁역,37.5757446,126.9714842,wydmc23
100000370.0,안국역.인사동,37.5763329,126.9855365,wydmc8s
100000128.0,창경궁.서울대학교병원,37.5788279,126.9968717,wydmcch
100000131.0,명륜동2가.성균관대입구,37.5833334,126.9993987,wydmccy
100000102.0,원남동,37.5745667,126.9973333,wydmcbh
100000102.0,원남동,37.5745325,126.9973383,wydmcbh
100000029.0,광화문.금호아시아나본관앞,37.570288,126.9731335,wydm9r7
100000028.0,서울역사박물관.경교장.강북삼성병원,37.5700333,126.9713,wydm9r3
100000028.0,서울역사박물관.경교장.강북삼성병원,37.570023,126.971248,wydm9r3
100000368.0,서대문역사거리.적십자병원,37.5670167,126.96755,wydm9ny
100000368.0,서대문역사거리.적십자병원,37.5671081,126.9675878,wydm9ny
100000073.0,서대문.서울시교육청,37.5682833,126.9645167,wydm9ph
100000073.0,서대문.서울시교육청,37.5682538,126.9645273,wydm9ph
112000438.0,독립문(경유),37.5722167,126.9597667,wydm9pc
112000187.0,독립문공원.극동아파트,37.5720167,126.9595667,wydm9pc
112000187.0,독립문공원.극동아파트,37.5718528,126.959319,wydm9p8
112000017.0,이대후문(중),37.5631,126.94365,wydm8wj
112000017.0,이대후문,37.5630635,126.9436483,wydm8wj
112000015.0,세브란스병원앞(중),37.5601167,126.93905,wydm8td
112000015.0,세브란스병원앞,37.5601326,126.9389236,wydm8td
112000013.0,연세대앞(중),37.56015,126.9355333,wydm8mx
112000013.0,연세대앞,37.560336,126.934881,wydm8mx
112000013.0,연세대앞,37.5601569,126.9354996,wydm8mx
112000011.0,서대문우체국(중),37.5625667,126.9314333,wydm8qh
112000011.0,서대문우체국,37.5625326,126.9314621,wydm8qh
112000009.0,연희104고지앞.구성산회관(중),37.5663667,126.92575,wydm8q8
112000009.0,연희104고지앞.구성산회관,37.566357,126.925786,wydm8q8
113000108.0,성산2교,37.5655667,126.9122333,wydjxyw
113000108.0,성산2교,37.5656929,126.9126441,wydjxyw
113000106.0,마포중앙도서관,37.5640667,126.90685,wydjxy6
113000106.0,마포중앙도서관,37.564253,126.907457,wydjxy7
113000103.0,마포구청역,37.5627667,126.9026667,wydjxwp
113000103.0,마포구청역,37.5627277,126.9026625,wydjxwp
118000130.0,영등포아리수정수센터,37.5479333,126.8834167,wydjx73
118000130.0,영등포아리수정수센터,37.5475241,126.8841131,wydjx76
115000001.0,염창역.서울도시가스(중),37.5471333,126.8758833,wydjx5h
115000001.0,염창역.서울도시가스,37.5470974,126.8758813,wydjx5h
115000003.0,등촌역.강서보건소(중),37.5489667,126.8686333,wydjwgw
115000003.0,등촌역.강서보건소,37.5490054,126.8686519,wydjwgw
115000005.0,등촌중학교.백석초등학교(중),37.5526667,126.8615667,wydjwu3
115000005.0,등촌중학교.백석초등학교,37.5526278,126.8615536,wydjwu1
115000588.0,강서구청사거리.서울디지털대학교(중),37.5547167,126.8558667,wydjwst
115000588.0,강서구청사거리.서울디지털대학교,37.5547564,126.8557818,wydjwst
115000590.0,KBS스포츠월드(중),37.55665,126.8504,wydjwsc
115000590.0,KBS스포츠월드,37.5566007,126.850463,wydjwsc
115000592.0,한국가스기술공사(중),37.5579,126.8454,wydjwmn
115000592.0,한국가스기술공사,37.5578531,126.8454938,wydjwmn
115000594.0,발산역(중),37.5585333,126.8391833,wydjwm3
115000594.0,발산역,37.5584907,126.8391584,wydjwm3
115000923.0,마곡동로사거리(중),37.55925,126.83185,wydjwjk
115000923.0,마곡동로사거리,37.5590346,126.8345854,wydjwjq
115000895.0,마곡역(중),37.5596833,126.8275833,wydjwj9
115000895.0,마곡역,37.559695,126.827513,wydjwj8
115000946.0,강서세무서(중),37.5601667,126.8226667,wydjtvt
115000946.0,강서세무서,37.5602011,126.822702,wydjtvt
115000894.0,공항중학교.마곡엠밸리9.10단지(중),37.56075,126.8168833,wydjtv9
115000894.0,공항중학교.마곡엠밸리9 10단지,37.5607316,126.8173343,wydjtv9
115000633.0,송정역(중),37.5613667,126.8111167,wydjttv
115000633.0,송정역,37.5613497,126.8110722,wydjttv
115000617.0,롯데몰.김포공항역,37.5623,126.8032667,wydjtqp
115000617.0,롯데몰.김포공항,37.562466,126.802932,wydjtqp
115000617.0,롯데몰.김포공항역,37.5624719,126.802962,wydjtqp
115000298.0,한국공항공사,37.5625333,126.7987667,wydjtqh
115000298.0,한국공항공사,37.56253,126.798237,wydjtq5
115000298.0,한국공항공사,37.56242,126.798863,wydjtqh
115000281.0,김포공항국내선(2번홈),37.5583667,126.8047,wydjtt2
115000281.0,김포공항국내선,37.5583803,126.8047524,wydjtt2
115000069.0,방화동도시개발11단지,37.5708667,126.8044167,wydjtx8
115000069.0,방화동도시개발11단지,37.570854,126.804378,wydjtx8
115000069.0,방화동도시개발11단지,37.570852,126.804202,wydjtx8
115000070.0,개화119안전센터,37.5752833,126.8025167,wydjv2q
115000070.0,개화2치안센터,37.575312,126.802531,wydjv2q
115000070.0,개화119안전센터,37.575195,126.8026,wydjv2q
115000320.0,개화역광역환승센터,37.57835,126.7975833,wydjv2g
115000320.0,개화역광역환승센터,37.578397,126.797605,wydjv2g
115000320.0,개화역광역환승센터,37.57845,126.797811,wydjv2g
114000271.0,양천공영차고지,37.50875,126.83765,wydjqk2
114000271.0,양천공영차고지,37.5090434,126.8375418,wydjqk2
114000258.0,대일관광고.푸른마을3단지,37.5110757,126.8363632,wydjqhx
114000283.0,푸른마을1단지앞,37.5126,126.8354,wydjqhy
114000283.0,푸른마을1단지.이든채아파트,37.5126531,126.8353881,wydjqhy
114000219.0,푸른마을2단지아파트,37.5143833,126.8339333,wydjqjm
114000219.0,양천중앙도서관.푸른마을2단지,37.5141912,126.8340906,wydjqjm
114000221.0,신월시영아파트.강월초등학교,37.5155,126.83485,wydjqjq
114000221.0,신월시영아파트.강월초등학교,37.515731,126.83553,wydjqjw
114000225.0,금실어린이공원,37.5170833,126.8381833,wydjqmb
114000225.0,금실어린이공원,37.5179542,126.8377738,wydjqmb
114000250.0,신월시영아파트중문,37.51905,126.8368333,wydjqnp
114000250.0,신월시영아파트중문,37.5190114,126.8368312,wydjqnp
114000261.0,신월문화체육센터,37.5200794,126.836482,wydjqnr
114000119.0,한빛종합사회복지관,37.521161,126.8391118,wydjqq9
114000118.0,강서초등학교,37.5217637,126.8416877,wydjqqe
114000117.0,신월2동주민센터입구,37.5226798,126.8455539,wydjqqy
114000116.0,양강중학교,37.523711,126.8499936,wydjqwc
114000171.0,신정역(은행정).신정4동주민센터,37.52465,126.8542167,wydjqxh
114000171.0,신정역(은행정).신정4동주민센터,37.5246301,126.8542989,wydjqxh
114000170.0,신서고등학교.영상고등학교입구,37.5254333,126.8599167,wydjqz2
114000170.0,신서고등학교.영상고등학교입구,37.5253957,126.8599725,wydjqz2
114000169.0,목동역.목동오거리,37.5258667,126.8631167,wydjqz6
114000169.0,목동역.목동오거리,37.5258057,126.8631068,wydjqz6
114000057.0,목동역.홍익병원,37.5273462,126.8643441,wydjqze
114000001.0,홍익병원목동관,37.5307277,126.8640381,wydjwb7
114000011.0,목동사거리,37.5332695,126.8638355,wydjwbe
114000012.0,영도중.강서고입구.기아양서대리점,37.5361735,126.863622,wydjwc7
114000013.0,목동시장.대일고교.배광교회,37.539005,126.8638409,wydjwcg
114000026.0,목동성원아파트,37.542295,126.8631752,wydjwf6
114000027.0,목3동주민센터.현대아이파크.실로암안과,37.5448325,126.862401,wydjwff
114000028.0,등촌역6번출구.목동깨비시장,37.5496948,126.8639369,wydjwge
118000133.0,양평동한솔아파트,37.5439167,126.89045,wydjx6w
118000133.0,양평동한솔아파트,37.5439165,126.8903472,wydjx6w
118000129.0,양평한신아파트.선유도공원입구,37.5417667,126.8943167,wydjxd3
118000129.0,양평한신아파트.선유도공원입구,37.5416485,126.8944278,wydjxd1
118000489.0,양화대교전망카페,37.53982,126.901182,wydjx9y
113000508.0,합정역(가상),37.547977,126.909858,wydjxgk
113000424.0,합정역(중),37.5489333,126.9129833,wydjxgx
113000424.0,합정역,37.54887,126.912553,wydjxgw
113000424.0,합정역,37.5488741,126.9128323,wydjxgx
100000025.0,광화문,37.5700333,126.97625,wydm9rm
100000025.0,광화문,37.5698453,126.9763838,wydm9rm
101000038.0,시청.서소문청사,37.56355,126.9749667,wydm9qh
112000054.0,충정로역2호선,37.5595667,126.9639,wydm9js
112000054.0,충정로역2호선,37.5596112,126.9640265,wydm9js
113000509.0,합정역(가상),37.551338,126.916227,wydm8h1
113000412.0,합정역(중),37.5495833,126.9138333,wydjxgx
113000412.0,합정역,37.549722,126.913938,wydjxgx
113000412.0,합정역,37.5496815,126.9139971,wydjxgx
118000490.0,양화대교전망카페,37.539938,126.900755,wydjx9y
118000131.0,양평한신아파트.선유도공원입구,37.542,126.8947667,wydjxd3
118000131.0,양평한신아파트.선유도공원입구,37.5418639,126.8948788,wydjxd6
115000076.0,영일고등학교.강서도서관,37.5489885,126.8633553,wydjwge
115000077.0,아이파크아파트.백석중학교.실로암안과,37.5451448,126.8621412,wydjwff
115000078.0,등촌2동주민센터.등촌동대림아파트,37.5419424,126.8629698,wydjwf6
115000079.0,대일고교.임광아파트.배광교회,37.5397913,126.8635679,wydjwcg
115000080.0,용문사.시립화곡청소년센터,37.5370972,126.8633458,wydjwc7
115000082.0,목동사거리,37.5316337,126.8636088,wydjwb7
114000181.0,목동역.홍익병원,37.5280495,126.8639151,wydjqzg
114000182.0,목동역.목동오거리,37.526,126.8628,wydjqz6
114000182.0,목동역.목동오거리,37.5259586,126.8627909,wydjqz6
114000183.0,신서고교.영상고교입구,37.5256833,126.8604167,wydjqz2
114000183.0,신서고교.영상고교입구,37.525653,126.8603986,wydjqz2
114000184.0,신정역(은행정).신정4동주민센터,37.52485,126.8543667,wydjqxh
114000184.0,신정역(은행정).신정4동주민센터,37.5248278,126.8542358,wydjqxh
114000207.0,양강중학교,37.5238313,126.8496618,wydjqx1
114000208.0,신월2동주민센터입구.경창전통시장,37.523024,126.8461879,wydjqqy
114000209.0,강서초등학교,37.5220325,126.8418886,wydjqqe
114000210.0,한빛종합사회복지관,37.52134,126.8388739,wydjqq9
114000192.0,신월문화체육센터,37.5202074,126.8363127,wydjqnr
114000251.0,신월시영아파트중문,37.5191018,126.8364045,wydjqnp
114000226.0,금실어린이공원,37.5174285,126.8378532,wydjqmb
114000222.0,신월시영아파트.강월초등학교,37.5159333,126.8352667,wydjqjw
114000222.0,신월시영아파트.강월초등학교,37.515937,126.835305,wydjqjw
114000220.0,양천중앙도서관.푸른마을2단지,37.514032,126.833988,wydjqjj
114000288.0,푸른마을1단지.이든채아파트,37.512878,126.83488,wydjqjn
114000259.0,대일관광고.푸른마을3단지,37.5113667,126.8358,wydjqhx
114000259.0,대일관광고.푸른마을3단지,37.511319,126.835885,wydjqhx
114000267.0,양천공영차고지,37.5084833,126.8374667,wydjqk0
114000267.0,양천공영차고지,37.5086072,126.8373326,wydjqk0
114000190.0,신월동우성상가,37.5218158,126.8337366,wydjqnt
114000189.0,신월문화체육센터,37.519969,126.835249,wydjqnq
114000115.0,신한은행신월동지점,37.5178667,126.8418667,wydjqmg
114000115.0,신한은행신월동지점,37.5178279,126.8418635,wydjqmg
114000113.0,신곡시장.금빛새마을금고,37.5193167,126.8438333,wydjqqh
114000113.0,신곡시장.금빛새마을금고,37.5192849,126.8438198,wydjqqh
114000111.0,동방아파트.신월종합사회복지관,37.5214667,126.8463,wydjqqw
114000111.0,동방아파트.신월종합사회복지관,37.5214264,126.8462896,wydjqqw
114000109.0,신정네거리.신정119안전센터,37.5220833,126.8507333,wydjqw9
114000109.0,신정네거리.신정119안전센터,37.5220233,126.85073,wydjqw9
114000147.0,신정네거리역,37.52105,126.8535333,wydjqw7
114000147.0,신정네거리역,37.5210121,126.8535197,wydjqw7
114000396.0,경서농협,37.5213667,126.8563,wydjqwt
114000396.0,경서농협,37.521363,126.856298,wydjqwt
114000144.0,우리은행신정동지점,37.5217,126.8593167,wydjqy8
114000144.0,우리은행신정동지점,37.521705,126.859385,wydjqy8
114000139.0,신정1동우체국,37.5219667,126.8616167,wydjqy9
114000139.0,신정1동우체국,37.521953,126.861673,wydjqy9
114000165.0,서울남부지방법원.서울남부지방검찰청,37.5221667,126.8633,wydjqye
114000165.0,서울남부지방법원.서울남부지방검찰청,37.522194,126.8633685,wydjqye
114000155.0,진명여고,37.5239833,126.8651167,wydjqzh
114000155.0,진명여고,37.5239401,126.8651037,wydjqzh
114000151.0,목동역,37.52575,126.8655667,wydjqzk
114000151.0,목동역,37.5257094,126.8655656,wydjqzk
114000162.0,목동7단지,37.5255833,126.8669667,wydjqzm
114000162.0,목동7단지,37.5255344,126.8668872,wydjqzm
114000061.0,목운초등학교.목운중학교,37.52615,126.8731833,wydjrp6
114000061.0,목운초등학교.목운중학교,37.5260486,126.8732302,wydjrp6
114000062.0,목동운동장남문.아이스링크,37.5286667,126.8766167,wydjrpu
114000062.0,목동운동장남문.아이스링크,37.5284743,126.8765922,wydjrpu
114000049.0,목동5단지C상가.목동운동장북문,37.5328667,126.8775333,wydjx0t
114000049.0,목동5단지C상가.목동운동장북문,37.5327708,126.8775356,wydjx0t
114000050.0,파리공원,37.5345833,126.8783,wydjx0v
114000050.0,파리공원,37.5346216,126.8783257,wydjx0v
114000051.0,목동5단지B상가.목5동주민센터,37.53575,126.8814,wydjx30
114000051.0,목동5단지B상가.목5동주민센터,37.535695,126.8811993,wydjx30
114000052.0,이대목동병원.목동6단지앞,37.5367333,126.88425,wydjx36
114000052.0,이대목동병원.목동6단지앞,37.5367253,126.8842348,wydjx36
118000126.0,한신아파트.선유도역,37.5382333,126.8928333,wydjx98
118000126.0,한신아파트.선유도역,37.5381465,126.8929866,wydjx98
118000127.0,선유도역.롯데제과,37.5372167,126.8949,wydjx96
118000127.0,선유도역.롯데제과,37.5371966,126.8948754,wydjx96
118000087.0,당산역,37.5347667,126.9004667,wydjx8y
118000087.0,당산역,37.5345885,126.9007189,wydjx8y
118000193.0,선유도공원,37.5420167,126.90295,wydjxdr
118000193.0,선유도공원,37.542025,126.902915,wydjxdr
101000015.0,종근당.충정로역,37.5596167,126.9644833,wydm9js
101000015.0,종근당.충정로역,37.559617,126.964556,wydm9js
101000015.0,종근당.충정로역,37.5595131,126.9644805,wydm9js
101000036.0,서소문,37.56325,126.9748833,wydm9qh
101000036.0,서소문,37.5632067,126.9748872,wydm9qh
101000034.0,삼성본관앞,37.5620667,126.9759,wydm9mv
101000034.0,삼성본관앞,37.5620517,126.9759075,wydm9mv
101000006.0,서울역버스환승센터(6번승강장)(중),37.55515,126.9727333,wydm9kd
101000006.0,서울역버스환승센터,37.5554794,126.9728547,wydm9kf
101000017.0,한국경제신문사,37.56065,126.9680833,wydm9jx
101000017.0,한국경제신문사.서소문역사공원,37.5606234,126.9681135,wydm9jx
118000192.0,선유도공원,37.5421667,126.90255,wydjxdr
118000192.0,선유도공원,37.542245,126.902595,wydjxdr
118000091.0,당산역,37.5347833,126.9023167,wydjx8z
118000091.0,당산역,37.5348629,126.9024102,wydjx9p
118000128.0,선유도역.롯데제과,37.5372333,126.8954833,wydjx96
118000128.0,선유도역.롯데제과,37.537145,126.8955567,wydjx96
118000125.0,한신아파트.선유도역,37.5384,126.8930167,wydjx98
118000125.0,한신아파트.선유도역,37.5383576,126.8932341,wydjx98
114000046.0,월촌중학교.목동1단지,37.5379333,126.8817,wydjx38
114000046.0,월촌중학교.목동1단지,37.5379586,126.8820591,wydjx38
114000006.0,목동2단지,37.5366333,126.8779333,wydjx1m
114000006.0,목동2단지,37.5364855,126.8778373,wydjx1m
114000007.0,목동3단지,37.5348333,126.8757167,wydjx1h
114000007.0,목동3단지,37.534747,126.875742,wydjx0u
114000008.0,목동4단지상가.목동종합운동장,37.5321833,126.8750833,wydjx0e
114000008.0,목동4단지상가.목동종합운동장,37.5322979,126.8751149,wydjx0e
114000056.0,목1동주민센터,37.5298833,126.8734667,wydjx04
114000056.0,목1동주민센터,37.529802,126.87358,wydjx04
114000060.0,목동7단지,37.5282167,126.8701667,wydjrpb
114000060.0,목동7단지,37.5283521,126.8701771,wydjrpb
114000063.0,목동7단지.종로학원,37.5255667,126.8691667,wydjqzr
114000063.0,목동7단지.종로학원,37.5255297,126.8691649,wydjqzr
114000167.0,진명여고,37.52455,126.8645833,wydjqz5
114000167.0,진명여고,37.5245071,126.8645744,wydjqz5
114000176.0,서울남부지방법원.서울남부지방검찰청,37.5225333,126.8641667,wydjqyg
114000176.0,서울남부지방법원.서울남부지방검찰청,37.5224864,126.8641572,wydjqyg
114000174.0,신정1동우체국,37.5221833,126.8614167,wydjqy9
114000174.0,신정1동우체국,37.5221525,126.8614154,wydjqy9
114000168.0,우리은행신정동지점,37.5219167,126.8585833,wydjqwx
114000168.0,우리은행신정동지점,37.5218698,126.8585796,wydjqwx
114000180.0,신정4동경서농협,37.5215,126.8550833,wydjqwt
114000180.0,신정4동경서농협,37.5214619,126.8550766,wydjqwt
114000177.0,신정네거리역,37.5213167,126.8534333,wydjqwe
114000177.0,신정네거리역,37.5212769,126.853432,wydjqwe
114000108.0,신정네거리.해누리분수광장,37.5219333,126.8515167,wydjqwd
114000108.0,신정네거리해누리분수광장,37.5218864,126.8515143,wydjqwd
114000110.0,동방아파트,37.5219167,126.8463333,wydjqqw
114000110.0,동방아파트,37.5218824,126.8463249,wydjqqw
114000112.0,신곡시장.금빛새마을금고,37.5196833,126.84375,wydjqqh
114000112.0,신곡시장.금빛새마을금고,37.5196434,126.8437433,wydjqqh
114000114.0,신한은행신월동지점,37.5176833,126.8408333,wydjqmf
114000114.0,신한은행신월동지점,37.5179563,126.8415193,wydjqmg
114000193.0,신월동우성상가,37.5215334,126.834106,wydjqnt
111001112.0,진관공영차고지,37.6465833,126.9079333,wydnpv7
111001112.0,진관공영차고지,37.6467463,126.9079256,wydnpv7
111000330.0,지축교앞,37.64485,126.9195833,wydq0jh
111000330.0,지축교앞,37.6447808,126.9196239,wydq0jh
111000331.0,진관중고교.약수사입구,37.6451667,126.9228667,wydq0jn
111000331.0,진관중고교약수사입구,37.6451606,126.9229619,wydq0jn
111000138.0,진관초교입구,37.64685,126.92585,wydq0m2
111000138.0,진관초교입구,37.6469051,126.9258465,wydq0m2
111000150.0,푸르지오625동앞.관음사입구,37.6489333,126.9285667,wydq0mf
111000150.0,푸르지오625동앞.관음사입구,37.6488387,126.9285859,wydq0mf
111000148.0,삼천리골입구.56사단북한산부대,37.6500667,126.93335,wydq0my
111000148.0,삼천리골입구56사단북한산부대,37.6499463,126.9334093,wydq0my
111000345.0,입곡삼거리,37.6501167,126.9362833,wydq0tb
111000345.0,입곡삼거리,37.649733,126.936408,wydq0tb
111000552.0,하나고.삼천사.진관사입구,37.64255,126.9385333,wydq0s9
111000552.0,하나고.삼천사.진관사입구,37.6417643,126.9381067,wydq0s3
111000261.0,푸르지오530동앞,37.6379333,126.9352,wydq07z
111000261.0,제각말5단지.은평뉴타운도서관,37.6367361,126.9344374,wydq07w
111000104.0,신도중학교,37.6332167,126.9316,wydq06u
111000104.0,신도중학교,37.6333482,126.931529,wydq06u
111000109.0,폭포동.은평노인종합복지관,37.6313667,126.9310667,wydq06s
111000109.0,폭포동.은평노인종합복지관,37.6313826,126.9310069,wydq06s
111000110.0,은평경찰서,37.6280833,126.9292333,wydq03g
111000110.0,은평경찰서,37.6280773,126.9291836,wydq03g
111000111.0,연신초등학교,37.62565,126.9287667,wydq03d
111000111.0,연신초등학교,37.6256234,126.9287702,wydq03d
111000112.0,불광지구대,37.6218833,126.9265,wydq02c
111000112.0,불광지구대,37.6218554,126.9265058,wydq02c
111000113.0,새장골유래비,37.62055,126.9243833,wydq00x
111000113.0,새장골유래비,37.6205196,126.9243796,wydq00x
111000114.0,연서시장,37.6195833,126.9225333,wydq00q
111000114.0,연서시장,37.6195966,126.922534,wydq00q
111000031.0,연신내역,37.61755,126.9222333,wydq00j
111000031.0,연신내역,37.6175221,126.922236,wydq00j
111000929.0,동명여고.천주교불광동성당(중),37.6162667,126.9239333,wydmbpz
111000929.0,동명여고.천주교불광동성당,37.6162184,126.9239252,wydmbpz
111000931.0,불광역3.6호선(중),37.6126833,126.92795,wydmbr4
111000931.0,불광역3.6호선,37.6124473,126.9281552,wydmbr4
111000933.0,불광역3호선.서울혁신파크(중),37.6091833,126.9309333,wydmbqs
111000933.0,불광역3호선.서울혁신파크,37.6092474,126.9309073,wydmbqs
111000935.0,한전성서지사.북한산푸르지오(중),37.6065167,126.9333667,wydmbqn
111000935.0,한전성서지사.북한산푸르지오,37.6061799,126.9336861,wydmbmy
111000937.0,녹번역(중),37.6028667,126.93495,wydmbmr
111000937.0,녹번역,37.6024349,126.9350485,wydmbmr
112000405.0,산골고개(중),37.5953333,126.93995,wydmbs4
112000405.0,산골고개,37.5953018,126.9399957,wydmbs4
112000407.0,홍제역.서대문세무서(중),37.5886,126.9442667,wydmbdv
112000407.0,홍제역.서대문세무서,37.5884908,126.9443652,wydmbdy
112000416.0,홍제삼거리.인왕산한신휴플러스(중),37.5852667,126.9477833,wydmbf0
112000416.0,홍제삼거리.인왕산한신휴플러스,37.585207,126.9478427,wydmbf0
112000398.0,무악재역(중),37.5832,126.9498,wydmbcf
112000398.0,무악재역,37.5831543,126.9498097,wydmbcf
112000404.0,안산초등학교(중),37.58065,126.9515333,wydmbc7
112000404.0,안산초등학교,37.580686,126.951572,wydmbc7
112000402.0,독립문역.한성과학고(중),37.5748667,126.9573167,wydmbbr
112000402.0,독립문역.한성과학고,37.5746889,126.9575774,wydmbbr
100000363.0,영천시장(중),37.5699833,126.9625,wydm9p7
100000363.0,영천시장,37.5699391,126.9625329,wydm9p7
112000403.0,서대문역(중),37.56645,126.9659167,wydm9nv
112000403.0,서대문역,37.5664745,126.96583,wydm9nv
112000399.0,경찰청.동북아역사재단(중),37.5624833,126.96925,wydm9q0
112000399.0,경찰청.동북아역사재단,37.5624764,126.9692243,wydm9q0
101000005.0,서울역버스환승센터(5번승강장)(중),37.55515,126.9726833,wydm9kd
101000005.0,서울역버스환승센터,37.5553876,126.9727617,wydm9kd
101000027.0,숭례문,37.55845,126.9741,wydm9m7
101000027.0,숭례문,37.5584195,126.9740436,wydm9m7
101000114.0,남대문시장앞.이회영활동터,37.5610167,126.9787333,wydm9mz
101000114.0,남대문시장앞.이회영활동터,37.5609394,126.9785803,wydm9my
101000043.0,롯데영프라자,37.5630333,126.9820833,wydm9w1
101000043.0,롯데영프라자,37.562885,126.982008,wydm9w1
101000040.0,우리은행종로지점,37.5676833,126.9829333,wydm9wf
101000040.0,우리은행종로지점,37.567519,126.9829289,wydm9wf
100000004.0,종로2가.삼일교(중),37.5686833,126.9875333,wydm9xj
100000004.0,종로2가.삼일교,37.5685792,126.987613,wydm9xj
101000059.0,을지로2가.기업은행본점.서울노동청,37.56625,126.9865333,wydm9ws
101000059.0,을지로2가.기업은행본점.서울노동청,37.5662462,126.9865233,wydm9ws
101000041.0,롯데백화점,37.5644667,126.98215,wydm9w3
101000041.0,롯데백화점,37.5644917,126.9820649,wydm9w3
101000018.0,경찰청.동북아역사재단,37.5630333,126.96915,wydm9q0
101000018.0,경찰청.동북아역사재단,37.5630494,126.9691267,wydm9q0
100000362.0,영천시장(중),37.5697833,126.96285,wydm9p7
100000362.0,영천시장,37.5696103,126.9630063,wydm9p7
112000401.0,독립문역.한성과학고(중),37.5757333,126.95645,wydmbbq
112000401.0,독립문역.한성과학고,37.5757049,126.9564198,wydmbbq
112000400.0,무악재역(중),37.5817833,126.9506667,wydmbcd
112000400.0,무악재역,37.5818652,126.9506553,wydmbcd
112000409.0,인왕산.홍제원아파트(중),37.5844667,126.9488333,wydmbf1
112000409.0,인왕산.홍제원아파트,37.5843965,126.9488623,wydmbf1
112000408.0,홍제역.서대문세무서(중),37.5878333,126.9453833,wydmbdw
112000408.0,홍제역.서대문세무서,37.5878433,126.9453225,wydmbdw
112000406.0,산골고개(중),37.5949333,126.94045,wydmbeg
112000406.0,산골고개,37.5946921,126.9406677,wydmbeg
111000938.0,녹번역(중),37.6018167,126.9353,wydmbmp
111000938.0,녹번역,37.6018619,126.935322,wydmbmp
111000936.0,한전성서지사.녹번동푸르지오(중),37.6053167,126.9344667,wydmbmy
111000936.0,한전성서지사.북한산푸르지오,37.6053738,126.9344004,wydmbmy
111000934.0,불광역3호선.서울혁신파크(중),37.6084333,126.9318667,wydmbqk
111000934.0,불광역3호선.서울혁신파크,37.6084378,126.9317496,wydmbqk
111000932.0,불광역3.6호선(중),37.61185,126.9288167,wydmbr4
111000932.0,불광역3.6호선,37.6119112,126.9287979,wydmbr4
111000930.0,동명여고.천주교불광동성당(중),37.6155167,126.9251333,wydmbr8
111000930.0,동명여고.천주교불광동성당,37.6154822,126.9252128,wydmbr8
111000020.0,연신내역,37.6182167,126.9221667,wydq00j
111000020.0,연신내역,37.6181925,126.9221617,wydq00j
111000097.0,연서시장,37.6192667,126.9225833,wydq00q
111000097.0,연서시장,37.6192425,126.922591,wydq00q
111000098.0,종로약국,37.6203833,126.9246,wydq00x
111000098.0,종로약국,37.6203765,126.924638,wydq00x
111000099.0,불광지구대,37.6218,126.9267833,wydq02c
111000099.0,불광지구대,37.6217745,126.9267891,wydq02c
111000100.0,북한산대창센시티아파트,37.6248333,126.9288167,wydq036
111000100.0,북한산대창센시티아파트,37.624807,126.9288094,wydq036
111000101.0,은평경찰서,37.6276667,126.9294667,wydq03g
111000101.0,은평경찰서,37.6276323,126.9294752,wydq03g
111000102.0,폭포동,37.6306833,126.93105,wydq06k
111000102.0,폭포동,37.630715,126.931032,wydq06k
111000107.0,은평노인종합복지관.신도중학교,37.6324833,126.9316,wydq06u
111000107.0,은평노인종합복지관.신도중학교,37.632495,126.931533,wydq06u
111000924.0,기자촌11단지앞,37.6346333,126.9326167,wydq07j
111000924.0,기자촌11단지앞,37.634757,126.93258,wydq07j
111000260.0,푸르지오521동,37.6384,126.9355833,wydq07z
111000260.0,제각말5단지.은평뉴타운도서관,37.638398,126.93551,wydq07z
111000342.0,하나고.삼천사.진관사입구,37.643,126.93905,wydq0sd
111000342.0,하나고.삼천사.진관사입구,37.641815,126.938408,wydq0s3
111000141.0,삼천리골입구.56사단북한산부대,37.6504167,126.9350667,wydq0qp
111000141.0,삼천리골입구56사단북한산부대,37.6503446,126.9351168,wydq0qp
111000140.0,푸르지오618동앞.관음사입구,37.6497,126.9291833,wydq0mg
111000140.0,푸르지오618동앞.관음사입구,37.6496105,126.9293196,wydq0mg
111000149.0,진관초교.관음사입구,37.6477667,126.9267333,wydq0m9
111000149.0,진관초교관음사입구,37.6477735,126.9268689,wydq0m9
111000151.0,진관중고교.약수사입구,37.6457667,126.9237,wydq0jp
111000151.0,진관중고교약수사입구,37.6457026,126.9236855,wydq0jp
111000329.0,지축교앞,37.6448667,126.9176667,wydq0j4
111000329.0,지축교앞,37.6448011,126.9177155,wydq0j4
111001113.0,진관공영차고지,37.6465333,126.9080667,wydnpv7
111001113.0,진관공영차고지,37.6466084,126.9081867,wydnpv7
111000060.0,선진운수종점,37.6140333,126.9104333,wydjzzm
111000060.0,선진운수종점,37.6139042,126.9107629,wydjzzm
111000127.0,구산동주민센터.구산치안센터,37.6120333,126.9112667,wydjzzj
111000127.0,구산동주민센터.구산치안센터,37.6119997,126.9112635,wydjzzj
111000128.0,구산중학교.구산교회,37.6088333,126.9108333,wydjzym
111000128.0,구산중학교.구산교회,37.6088023,126.9108335,wydjzym
111000129.0,시립서북병원세현교회앞,37.60605,126.9104667,wydjzvv
111000129.0,시립서북병원세현교회앞,37.6060168,126.9104597,wydjzvv
111000130.0,서울기독대학교입구,37.6020667,126.9102333,wydjzvj
111000130.0,서울기독대학교입구,37.602032,126.9102266,wydjzvj
111000131.0,우남교통,37.5998,126.9101333,wydjzuv
111000131.0,우남교통,37.5997666,126.9101252,wydjzuv
111000278.0,신사동고개,37.5977669,126.9099169,wydjzuk
111000072.0,상신초등학교,37.5956333,126.9099667,wydjzuj
111000072.0,신사동고개사거리,37.5956071,126.9099682,wydjzuj
111000073.0,신사초등학교,37.5933833,126.91285,wydjzgx
111000073.0,신사초등학교,37.5933583,126.9128484,wydjzgx
111000074.0,응암오거리,37.5907322,126.9161467,wydmb51
111000077.0,대림시장,37.5877833,126.9165,wydmb49
111000077.0,대림시장,37.5878268,126.9165435,wydmb49
112000096.0,동도하이츠아파트,37.5849333,126.9147667,wydmb40
112000096.0,동도하이츠아파트,37.5849012,126.9147685,wydmb40
112000094.0,KT가좌지사,37.5828167,126.9133167,wydjzcx
112000094.0,KT가좌지사,37.5828159,126.9133034,wydjzcx
112000092.0,북가좌2동주민센터,37.5803,126.9114667,wydjzcq
112000092.0,북가좌2동주민센터,37.5802996,126.9114608,wydjzcq
112000100.0,DMC래미안e.편한세상2.4단지,37.5767833,126.911,wydjzbt
112000100.0,DMC래미안e.편한세상2.4단지,37.5767408,126.9109918,wydjzbt
112000102.0,북가좌삼호.가재울아이파크아파트,37.5753,126.9133167,wydjzbr
112000102.0,북가좌삼호.DMC아이파크아파트,37.5752684,126.9133099,wydjzbr
112000106.0,DMC파크뷰자이.별동상가,37.5749667,126.91735,wydmb06
112000106.0,DMC파크뷰자이.별동상가,37.575068,126.9163111,wydmb03
112000097.0,DMC.파크뷰자이,37.5729667,126.9133333,wydjxzz
112000097.0,DMC.파크뷰자이,37.5737818,126.9161114,wydmb01
112000099.0,모래내삼거리,37.57075,126.91325,wydjxzx
112000099.0,모래내삼거리,37.5708653,126.9131669,wydjxzx
112000127.0,신촌기차역,37.5586667,126.9426,wydm8tk
112000127.0,신촌기차역,37.5586548,126.9425311,wydm8tk
119000028.0,노들역,37.51285,126.9508833,wydm2v4
119000028.0,노들역,37.5128098,126.9508931,wydm2uf
119000027.0,사육신공원,37.51315,126.9486667,wydm2v1
119000027.0,사육신공원,37.513315,126.947977,wydm2v0
119000025.0,노량진역,37.5139,126.9435,wydm2tj
119000025.0,노량진역2번출구,37.5138535,126.9433483,wydm2tj
119000097.0,동작구청.노량진초등학교앞,37.5104167,126.9400333,wydm2sd
119000097.0,동작구청.노량진초등학교앞,37.5103727,126.9400366,wydm2sd
119000099.0,장성교회,37.5084167,126.9399833,wydm2s4
119000099.0,장성교회,37.508211,126.9399682,wydm2s4
119000059.0,동작문화복지센터.동작보건소,37.5049377,126.9407908,wydm2ee
119000061.0,상도노빌리티아파트,37.5047608,126.9457915,wydm2ex
119000067.0,상도시장,37.5016667,126.9486167,wydm2fc
119000067.0,상도역,37.5016271,126.9486225,wydm2fc
119000069.0,상도동중앙하이츠빌.상도전통시장,37.49885,126.9511833,wydm2f7
119000069.0,상도동중앙하이츠빌.상도전통시장,37.4988131,126.951185,wydm2f7
119000071.0,숭실대입구역,37.4967449,126.9528636,wydm2fh
119000076.0,숭실대정문앞,37.49515,126.957055,wydm2cz
119000078.0,숭실대별관앞,37.494639,126.9602929,wydm319
119000319.0,사당롯데캐슬골든포레.사당해그린,37.4930149,126.9625058,wydm317
119000080.0,사당5치안센터,37.4890277,126.9656493,wydm30t
119000082.0,총신대,37.487752,126.9664052,wydm30q
119000083.0,사당중학교,37.4864269,126.9680184,wydm30p
119000086.0,남성역,37.4847155,126.9706143,wydm1rc
119000088.0,남성역골목시장,37.4835063,126.9730387,wydm1rd
119000296.0,사당동대아신협앞,37.4832641,126.9761194,wydm1rt
119000089.0,남성초등학교,37.484155,126.97911,wydm1rz
119000091.0,이수역9번출구,37.4846184,126.9802576,wydm1xb
121000304.0,이수역,37.4854596,126.9840028,wydm384
121000305.0,방배초등학교,37.4856847,126.9863829,wydm38h
121000306.0,방배고개,37.4865004,126.9903017,wydm38p
121001327.0,내방역1번출구,37.48785,126.9948,wydm3b6
121001327.0,내방역1번출구,37.4879027,126.9948004,wydm3b6
121001329.0,서리풀문화광장,37.4909097,127.0051901,wydm614
121000300.0,서초역3번출구,37.490795,127.0078482,wydm60u
121000066.0,서초동삼성아파트,37.4885115,127.0089653,wydm60t
121000084.0,이수교차로(미정차),37.501103,126.983547,wydm3df
121000084.0,서울교대사거리,37.4877389,127.012974,wydm622
121000058.0,교대역3,37.49365,127.0129833,wydm638
121000058.0,교대역10번출구,37.4936114,127.0129931,wydm638
121001328.0,대법원앞,37.49159,127.0063545,wydm615
121000309.0,내방역,37.4874465,126.9926575,wydm3b3
121000310.0,방배고개,37.4862946,126.9888524,wydm38n
121000311.0,이수역,37.4857905,126.9847839,wydm385
119000092.0,이수역10번출구,37.4848328,126.9801874,wydm1xb
119000090.0,남성초등학교,37.4842992,126.9784299,wydm1ry
119000087.0,남성역골목시장,37.483569,126.9734201,wydm1re
119000085.0,남성역,37.4849291,126.9707465,wydm1rc
119000084.0,사당중학교,37.4866369,126.9681789,wydm30p
119000081.0,총신대,37.4887422,126.9661798,wydm30t
119000079.0,숭실대별관앞,37.49493,126.9600224,wydm319
119000077.0,숭실대정문앞,37.4953183,126.9572808,wydm2cz
119000073.0,숭실대입구역,37.4965,126.9537333,wydm2fh
119000073.0,숭실대입구역,37.4964614,126.9537334,wydm2fh
119000070.0,상도동중앙하이츠빌.상도전통시장,37.4987333,126.9517667,wydm2f7
119000070.0,상도동중앙하이츠빌.상도전통시장,37.4986899,126.9517743,wydm2f7
119000068.0,상도시장,37.5012833,126.9495167,wydm2fc
119000068.0,상도역,37.501249,126.9495197,wydm2fc
119000062.0,상도노빌리티아파트,37.5043269,126.9468675,wydm2er
119000060.0,동작문화복지센터.동작보건소,37.505277,126.941899,wydm2es
119000100.0,청화병원,37.5072833,126.9400833,wydm2ef
119000100.0,청화병원,37.507245,126.9400798,wydm2ef
119000098.0,동작구청.노량진초등학교앞,37.5106,126.9403333,wydm2se
119000098.0,동작구청.노량진초등학교앞,37.510453,126.940337,wydm2se
119000024.0,노량진역,37.5134333,126.94175,wydm2th
119000024.0,노량진역3번출구,37.5133914,126.941757,wydm2th
112000057.0,이대역,37.557033,126.947073,wydm8v0
112000057.0,이대역,37.5569763,126.9469014,wydm8tp
112000058.0,신촌기차역입구,37.5568333,126.9439667,wydm8tj
112000058.0,신촌기차역입구,37.5568082,126.9438432,wydm8tj
112000128.0,신촌기차역,37.5584167,126.9428833,wydm8tk
112000128.0,신촌기차역,37.5581513,126.9429333,wydm8tm
112000035.0,이대부중,37.5622161,126.9429924,wydm8tv
112000037.0,이대부고,37.5648667,126.946,wydm8wr
112000037.0,이대부고,37.5653726,126.9464277,wydm8wx
112000036.0,이대부중,37.56365,126.9442167,wydm8wm
112000036.0,이대부중,37.563644,126.944163,wydm8wm
112000024.0,모래내시장.가좌역,37.5699,126.9140667,wydm8p2
112000024.0,모래내시장.가좌역,37.5698687,126.9140622,wydjxzr
112000098.0,삼성래미안2차아파트,37.5717667,126.9139,wydjxzx
112000098.0,삼성래미안2차아파트,37.57125,126.913812,wydjxzx
112000432.0,DMC.파크뷰자이,37.5735167,126.9161667,wydmb01
112000432.0,DMC.파크뷰자이,37.5736755,126.9164488,wydmb01
112000105.0,동부센트레빌아파트,37.5752167,126.9152167,wydmb02
112000105.0,동부센트레빌아파트,37.575307,126.915772,wydmb03
112000103.0,북가좌삼호.가재울아이파크아파트,37.5753667,126.9139333,wydjzbr
112000103.0,북가좌삼호.DMC아이파크아파트,37.57553,126.913058,wydjzbr
112000101.0,모래내우체국.증가교회,37.57655,126.9115167,wydjzbw
112000101.0,모래내우체국.증가교회,37.576322,126.911825,wydjzbw
112000181.0,북가좌초교사거리,37.57835,126.9103333,wydjzbv
112000181.0,북가좌초교사거리,37.578365,126.910333,wydjzbv
112000091.0,북가좌2동주민센터,37.5798,126.91145,wydjzcn
112000091.0,북가좌2동주민센터,37.579833,126.911478,wydjzcn
112000093.0,KT가좌지사,37.5818833,126.91305,wydjzcx
112000093.0,KT가좌지사,37.5818525,126.9130475,wydjzcx
112000095.0,동도하이츠아파트,37.5847167,126.9150167,wydmb40
112000095.0,동도하이츠아파트,37.584677,126.9150178,wydmb40
111000078.0,대림시장,37.5887167,126.9170333,wydmb4f
111000078.0,대림시장,37.5886847,126.9170368,wydmb4f
111000069.0,응암오거리,37.5907361,126.9165521,wydmb51
111000070.0,신사초등학교,37.5931667,126.91355,wydjzgx
111000070.0,신사초등학교,37.5931399,126.9135451,wydjzgx
111000071.0,신사동고개사거리,37.5958595,126.9101548,wydjzuj
111000122.0,신사동고개.은평지역자활센터,37.5984133,126.9102536,wydjzut
111000123.0,서울기독대학교입구,37.6014667,126.9103833,wydjzvj
111000123.0,서울기독대학교입구,37.6014374,126.9103848,wydjzvj
111000124.0,시립서북병원세현교회앞,37.6061833,126.9106667,wydjzvv
111000124.0,시립서북병원세현교회앞,37.6061458,126.9106589,wydjzvv
111000125.0,구산중학교.구산교회,37.60875,126.911,wydjzym
111000125.0,구산중학교.구산교회,37.608955,126.91102,wydjzyt
111000126.0,구산동주민센터.구산치안센터,37.6114833,126.9113833,wydjzyy
111000126.0,구산동주민센터.구산치안센터,37.61138,126.911363,wydjzyy
111000055.0,선진운수종점,37.6142,126.9107833,wydjzzm
111000055.0,선진운수종점,37.6143482,126.9103722,wydjzzm
108000066.0,북부수도사업소,37.634235,127.0361604,wydq4g0
108000088.0,강북보건소,37.6321072,127.0391909,wydq4fe
108000092.0,번동주공4단지,37.631378,127.0399848,wydq4fe
108000094.0,번동주공3단지,37.6290195,127.0434628,wydq4fn
108000096.0,번동주공1단지,37.6255071,127.0481295,wydq519
107000095.0,월계2교.참누리아파트,37.6232183,127.0503746,wydq515
107000097.0,광운초교앞,37.6202997,127.0528391,wydq50t
107000528.0,남대문중학교,37.6180556,127.0546974,wydq50n
107000099.0,장위3동주민센터,37.6162245,127.0570354,wydmgrb
107000101.0,장삼주유소,37.6141178,127.0592242,wydmgr3
107000053.0,장위동동원베네스트.온누리병원,37.6120418,127.0589631,wydmgr1
107000039.0,KT월곡지사,37.6029467,127.035189,wydmfv2
107000060.0,종암경찰서,37.6014667,127.0330333,wydmftn
107000060.0,종암사거리입구,37.6014326,127.0330443,wydmftn
107000062.0,종암동주민센터,37.5993167,127.03415,wydmfsx
107000062.0,종암동주민센터,37.5994152,127.0341075,wydmfsz
107000064.0,숭례초교,37.5948667,127.0356667,wydmfgb
107000064.0,숭례초교,37.5948052,127.0356811,wydmfgb
107000066.0,고대앞,37.5887,127.0349167,wydmffb
107000066.0,고대앞,37.5885636,127.0348108,wydmfdz
107000206.0,안암전철역,37.5863644,127.0302759,wydmfdk
107000204.0,고려대이공대.고대병원,37.5863683,127.0254738,wydmfd3
107000202.0,안암동주민센터,37.586268,127.0223689,wydmf6q
107000200.0,보문역,37.5856511,127.0200803,wydmf6m
107000088.0,성북구청.성북경찰서,37.5886333,127.0172167,wydmf6g
107000088.0,성북구청.성북경찰서,37.5886054,127.0172299,wydmf6g
107000086.0,삼선동주민센터,37.5907167,127.0147,wydmf71
107000086.0,삼선동주민센터,37.5906917,127.0147153,wydmf71
107000147.0,삼선교.성북문화원,37.5889957,127.0058033,wydmf4f
107000145.0,성북동주민센터.동구마케팅고,37.5907277,127.0040392,wydmf51
107000143.0,경신중고입구,37.5922731,127.0027845,wydmf52
107000141.0,홍익대부속중고등학교입구,37.5932724,127.001531,wydmcgx
107000139.0,성북초교.성북선잠박물관,37.5930769,126.9978246,wydmcgs
107000137.0,성북구립미술관.쌍다리앞,37.5937446,126.9959436,wydmcge
107000135.0,동방문화대학원대학교,37.5947239,126.9936413,wydmcgc
107000514.0,서울다원학교.한용운활동터,37.594665,126.991788,wydmcgb
107000133.0,서울다원학교.한용운활동터,37.5946012,126.9913481,wydmcgb
107000134.0,동방문화대학원대학교,37.5943995,126.9930728,wydmcgc
107000136.0,성북구립미술관.쌍다리앞,37.5935941,126.9958337,wydmcge
107000138.0,성북초교.성북선잠박물관,37.5929147,126.9987894,wydmcgt
107000140.0,홍익대부속중고등학교입구,37.5932175,127.0006477,wydmcgx
107000142.0,경신중고입구,37.5917865,127.0028344,wydmf52
107000144.0,성북동주민센터.동구마케팅고,37.5907466,127.0036474,wydmf51
107000509.0,한성대입구역,37.5893629,127.0047236,wydmf4f
107000222.0,돈암초교입구,37.5910822,127.0122536,wydmf5p
107000085.0,삼선동주민센터,37.59065,127.0143333,wydmf71
107000085.0,삼선동주민센터,37.5906107,127.0143473,wydmf71
107000087.0,성북구청.성북경찰서,37.5882833,127.01725,wydmf6e
107000087.0,성북구청.성북경찰서,37.5882431,127.0172592,wydmf6e
107000199.0,보문역,37.5854637,127.0202535,wydmf6j
107000201.0,안암동주민센터,37.5860464,127.0219386,wydmf6q
107000203.0,고려대이공대.고대병원,37.5860798,127.0260749,wydmfd3
107000205.0,안암역,37.5862292,127.0305239,wydmfdk
105000089.0,고려대학교앞,37.5881667,127.03475,wydmfdx
105000089.0,고려대학교앞,37.5881473,127.0347743,wydmfdx
107000065.0,숭례초등학교,37.59435,127.0361667,wydmfgb
107000065.0,숭례초등학교,37.5943969,127.0361701,wydmfgb
107000063.0,종암동주민센터,37.5988167,127.03465,wydmfsx
107000063.0,종암동주민센터,37.5981892,127.0349442,wydmfu8
107000061.0,종암경찰서,37.6010667,127.0337833,wydmftp
107000061.0,종암사거리입구,37.601044,127.0337882,wydmftp
107000038.0,KT월곡지사,37.602483,127.0338761,wydmftr
107000040.0,종암SK아파트,37.6020314,127.0374933,wydmfv1
107000051.0,돌곶이역,37.6113185,127.058386,wydmgqc
107000102.0,장삼주유소,37.6139733,127.0597361,wydmgr6
107000100.0,장위3동주민센터,37.6166153,127.0570263,wydmgrb
107000529.0,남대문중학교,37.6177666,127.0553787,wydq50n
107000098.0,광운초교,37.6205589,127.0529196,wydq50t
107000096.0,월계2교,37.623825,127.050133,wydq515
108000097.0,번동주공1단지,37.627015,127.047227,wydq51b
108000095.0,번동주공3단지,37.628652,127.044375,wydq4fn
108000093.0,초안교,37.63111,127.04109,wydq4fs
108000091.0,강북보건소,37.632478,127.039233,wydq4fg
108000111.0,한성운수차고지,37.6342894,127.0371118,wydq4g1
108000195.0,한성운수종점,37.634618,127.035297,wydq4g0
109000068.0,도봉산입구,37.6869698,127.0404874,wydq6us
109000069.0,도봉고등학교,37.6872443,127.0440331,wydq6uy
109000023.0,도봉동한신아파트,37.682614,127.0456109,wydq6gz
109000026.0,서울북부지방법원.검찰청.도봉역성황당,37.6770277,127.0446529,wydq6fz
109000028.0,도봉견인차량보관소,37.6741048,127.04415,wydq6fq
109000077.0,천주교도봉동교회,37.6713333,127.0427,wydq6cv
109000077.0,천주교도봉동교회,37.6713119,127.0428107,wydq6cv
109000079.0,오봉초등학교,37.6707333,127.03925,wydq6ce
109000079.0,오봉초등학교,37.6708391,127.0395581,wydq6cg
109000081.0,방학2동공영주차장,37.66955,127.03655,wydq6c9
109000081.0,방학2동공영주차장,37.6696083,127.0367133,wydq6c9
109000083.0,방학2동주민센터,37.6682667,127.0346167,wydq69r
109000083.0,방학2동주민센터,37.6682708,127.0346224,wydq69r
109000096.0,방학중학교정문,37.6663777,127.0342826,wydq68z
109000222.0,방학동도깨비시장,37.6652321,127.0355369,wydq6b8
109000098.0,신한은행방학동지점,37.6632312,127.0371976,wydq6b3
109000107.0,국민은행방학지점,37.662595,127.034113,wydq68r
109000105.0,방학동신동아아파트,37.662362,127.03202,wydq68j
109000103.0,방학3동신동아프라자,37.6613704,127.0274841,wydq684
109000124.0,방학3동주민센터,37.6598133,127.0276286,wydq4xf
109000189.0,세그루학원,37.6556242,127.0278333,wydq4wf
109000141.0,둘리뮤지엄.대우이안극동아파트,37.6513412,127.0283111,wydq4w5
109000139.0,숭미초등학교,37.6500735,127.0279502,wydq4tf
109000137.0,쌍문초등학교,37.647095,127.02539,wydq4t3
108000110.0,강북중학교,37.6448419,127.023548,wydq4mp
108000112.0,광산사거리,37.6425235,127.022992,wydq4kx
108000184.0,수유역.강북구청,37.6386311,127.0260514,wydq4ec
108000056.0,신일병원,37.6347798,127.0221796,wydq47n
108000054.0,강북노인종합복지관,37.6344334,127.0189955,wydq47h
108000083.0,삼양동사거리,37.6190766,127.021903,wydq42q
108000085.0,성암국제무역고등학교,37.6179423,127.025523,wydq481
108000087.0,삼양동사거리입구,37.61706,127.028487,wydmfxg
108000172.0,미아사거리역,37.615385,127.0297349,wydmfxs
107000154.0,미아사거리,37.6101676,127.0300443,wydmfws
107000058.0,성가복지병원,37.6059333,127.0311167,wydmftv
107000058.0,성가복지병원,37.6058827,127.0311378,wydmftv
107000525.0,일신초교.래미안라센트아파트,37.5984577,127.0395147,wydmfue
107000526.0,서울사대부설중학교,37.5961434,127.0383641,wydmfu4
107000527.0,서울사대부설고등학교,37.5941605,127.0372992,wydmfgc
107000059.0,성가복지병원,37.6057833,127.0315667,wydmftv
107000059.0,성가복지병원,37.6057447,127.0315874,wydmftv
108000086.0,삼양동사거리입구,37.6172649,127.0285496,wydq485
108000084.0,성암국제무역고등학교,37.6182434,127.0252762,wydq480
108000082.0,삼양동사거리,37.6192164,127.0222677,wydq42q
108000055.0,강북노인종합복지관,37.6341901,127.0189887,wydq47h
108000057.0,신일병원,37.6343871,127.0212163,wydq47n
108000113.0,광산사거리,37.6438445,127.0231023,wydq4kz
109000136.0,쌍문초등학교,37.6469743,127.0256814,wydq4t3
109000138.0,숭미초등학교,37.649556,127.027789,wydq4tf
109000140.0,둘리뮤지엄.대우이안극동아파트,37.651771,127.0284257,wydq4w7
109000188.0,세그루학원,37.6565423,127.02799,wydq4x4
109000214.0,방학3동주민센터,37.6591681,127.0279037,wydq4xd
109000123.0,방학3동신동아프라자,37.6608342,127.02774,wydq4xf
109000101.0,방학동신동아타워,37.6617167,127.0281,wydq685
109000101.0,방학동신동아타워,37.6616802,127.028111,wydq685
109000104.0,방학동신동아아파트,37.6620167,127.0313667,wydq68j
109000104.0,방학동신동아아파트,37.6619831,127.0313834,wydq68j
109000106.0,국민은행방학지점,37.6623667,127.0343167,wydq68p
109000106.0,국민은행방학지점,37.6623319,127.034334,wydq68p
109000097.0,신한은행방학동지점,37.6630996,127.037439,wydq6b3
109000221.0,도깨비시장,37.6653285,127.0356911,wydq6bb
109000095.0,방학중학교정문,37.666488,127.034428,wydq68z
109000082.0,방학2동주민센터,37.6681095,127.0347266,wydq69r
109000080.0,방학2동공영주차장,37.669329,127.0364774,wydq6c3
109000078.0,오봉초등학교,37.6705203,127.0391794,wydq6ce
109000076.0,천주교도봉동교회,37.6711723,127.0428106,wydq6cv
109000027.0,도봉견인차량보관소,37.6741632,127.0446001,wydq6fr
109000025.0,서울북부지방법원.검찰청.도봉역성황당,37.6771834,127.0451325,wydq6fz
109000024.0,도봉동한신아파트,37.6821047,127.0459586,wydq75b
109000070.0,김근태기념도서관.도봉고등학교,37.6874918,127.043934,wydq6uy
109000228.0,도봉산입구,37.687212,127.0410409,wydq6us
106000469.0,중랑공영차고지삼거리,37.6128516,127.1048558,wydmur4
106000463.0,당너머,37.6128307,127.1079642,wydmurj
106000481.0,신내SKV1센터,37.6145474,127.1134525,wydmux9
106000458.0,신내데시앙포레아파트220동앞,37.6158044,127.1127215,wydmux8
106000460.0,새솔초등학교입구,37.6172677,127.109803,wydqh2n
106000472.0,우디안아파트114동앞,37.6188169,127.1075905,wydqh2k
106000456.0,중랑경찰서후문,37.6197167,127.1048167,wydqh26
106000456.0,중랑경찰서후문,37.619689,127.1048418,wydqh26
106000204.0,새우개마을,37.6182167,127.10335,wydqh21
106000204.0,새우개마을,37.6182441,127.1033558,wydqh21
106000442.0,신내차량사업소입구,37.612673,127.1018665,wydmur0
106000240.0,동서울교회,37.6115852,127.1052575,wydmuqg
106000238.0,양원리,37.6093825,127.106538,wydmuqs
106000046.0,금란교회앞,37.6006889,127.1038043,wydmukf
106000093.0,삼용사입구,37.5976831,127.1001745,wydmuhr
106000138.0,혜원여중고후문,37.5904558,127.0965265,wydmu5h
106000136.0,농협앞,37.5894466,127.0919968,wydmu4c
106000134.0,면목역,37.5886788,127.0885501,wydmgfz
106000132.0,면목복개천,37.5880708,127.0858782,wydmgft
106000130.0,하나은행면목지점,37.5869965,127.0810827,wydmgf9
106000023.0,면목5동주민센터.중랑구치매지원센터,37.5850833,127.0796167,wydmgf0
106000023.0,면목5동주민센터,37.5850673,127.0796652,wydmgf0
106000475.0,늘푸른근린공원,37.58315,127.0796,wydmgcb
106000475.0,늘푸른근린공원,37.5831084,127.0796405,wydmgcb
106000148.0,홈플러스면목동점,37.5811308,127.0817183,wydmgc6
106000150.0,면목두산아파트2차,37.5809856,127.0844378,wydmgck
106000152.0,사가정역,37.5807103,127.0876474,wydmgcq
106000154.0,사가정시장,37.5805278,127.0889635,wydmgcr
106000108.0,면목동금호어울림아파트,37.5793023,127.0918224,wydmu11
106000110.0,면목동대원칸타빌아파트,37.577572,127.090077,wydmu0b
106000112.0,용마폭포공원,37.5759266,127.0885475,wydmgbr
106000114.0,용마산역,37.5735061,127.0863981,wydmgbj
106000116.0,용마산하늘채아파트,37.5712581,127.0860197,wydmezt
104000038.0,용암사입구,37.5679159,127.0860566,wydmezj
104000041.0,대원고교앞,37.563966,127.0867086,wydmeym
104000023.0,중곡동종점,37.5620725,127.0870618,wydmevv
104000024.0,중곡보건지소,37.5599565,127.0873831,wydmevw
104000026.0,중곡우체국앞,37.561489,127.0839868,wydmevg
104000019.0,중곡2동주민센터앞,37.5598837,127.0808552,wydmev9
104000160.0,능동사거리.군자역,37.5566667,127.0789667,wydmeub
104000160.0,능동사거리.군자역,37.556322,127.07882,wydmesz
104000159.0,능동교회앞,37.5529167,127.07695,wydmesq
104000159.0,능동교회앞,37.5528739,127.0769927,wydmesq
104000158.0,어린이대공원앞.세종대학교,37.5497833,127.07545,wydmeet
104000158.0,어린이대공원앞.세종대학교,37.549752,127.07544,wydmeet
104000134.0,어린이대공원역.화양천주교회,37.54655,127.0735833,wydmeeh
104000134.0,어린이대공원역.화양천주교회,37.5466216,127.0736284,wydmeeh
104000135.0,서울화양초등학교,37.5438,127.0722667,wydmede
104000135.0,서울화양초등학교,37.543765,127.072222,wydmede
104000170.0,건대병원입구,37.5421084,127.0714727,wydmed6
104000112.0,건국대학교앞,37.5384461,127.0748753,wydme9t
104000086.0,자양초등학교앞,37.5374793,127.0787964,wydme9r
104000084.0,자양사거리,37.5367503,127.0821044,wydmec6
104000106.0,구의역3번출구,37.53755,127.0882333,wydmecw
104000106.0,구의역3번출구,37.5375186,127.0882893,wydmecq
104000302.0,구의3동주민센터,37.5390333,127.0925333,wydms1c
104000302.0,구의3동주민센터,37.5388973,127.0926316,wydms1d
104000074.0,광장동현대아파트앞,37.5420167,127.0991667,wydms4q
104000074.0,광장동현대아파트앞,37.5420128,127.0990747,wydms4q
104000075.0,광나루역.극동아파트,37.5434667,127.1030667,wydms69
104000075.0,광나루역.극동아파트,37.5434728,127.1030692,wydms69
104000269.0,광진청소년수련관,37.5459333,127.1054167,wydms75
104000269.0,광진청소년수련관,37.5459514,127.1053745,wydms75
104000307.0,광진구민체육센터,37.5468671,127.1077984,wydms7j
104000306.0,광나루우편취급국,37.5475566,127.1063923,wydms7k
104000076.0,광나루역.극동아파트,37.5441833,127.1032167,wydms69
104000076.0,광나루역.극동아파트,37.543917,127.1030856,wydms69
104000073.0,광장동현대아파트앞,37.5421167,127.09815,wydms4q
104000073.0,광장동현대아파트앞,37.541797,127.0974629,wydms4m
104000303.0,구의3동주민센터,37.5391833,127.0923167,wydms1c
104000303.0,구의3동주민센터,37.5393567,127.0921595,wydms1c
104000056.0,구의역2번출구,37.5379333,127.0886,wydmecx
104000056.0,구의역2번출구,37.5377026,127.0879772,wydmecw
104000083.0,자양사거리,37.5368892,127.0826036,wydmec6
104000085.0,자양초등학교앞,37.5378444,127.0786588,wydme9x
104000087.0,건국대학교앞,37.538949,127.0749259,wydme9v
104000139.0,건대입구역사거리.건대병원,37.5409667,127.0713167,wydmed4
104000139.0,건대입구역사거리.건대병원,37.5409809,127.0712638,wydmed4
104000141.0,어린이대공원역.화양천주교회,37.5459333,127.0736167,wydmeeh
104000141.0,어린이대공원역.화양천주교회,37.5459043,127.0735881,wydmeeh
104000047.0,어린이대공원앞,37.55215,127.0771,wydmesn
104000047.0,어린이대공원앞,37.5520458,127.0770314,wydmesn
104000048.0,능동사거리.군자역,37.5551667,127.07865,wydmesx
104000048.0,능동사거리.군자역,37.5551766,127.0786346,wydmesx
104000020.0,중곡2동주민센터앞,37.5598402,127.0811551,wydmev9
104000021.0,중곡동성당앞,37.5630899,127.0828471,wydmey4
104000022.0,종합의료복합단지,37.5638882,127.0833601,wydmey7
104000040.0,중곡역.국립정신건강센터,37.5660464,127.0845454,wydmeys
104000039.0,용곡삼거리,37.5679334,127.0855902,wydmezh
106000115.0,용마산하늘채아파트,37.5710236,127.0863069,wydmezt
106000113.0,용마산역,37.5733815,127.0866708,wydmgbj
106000111.0,용마폭포공원,37.5756922,127.0887419,wydmgbr
106000109.0,면목동금호어울림아파트,37.5777198,127.0906399,wydmu0b
106000155.0,용마산교차로,37.5806781,127.0927883,wydmu16
106000153.0,사가정시장,37.58056,127.089795,wydmgcr
106000151.0,사가정역,37.5808589,127.0877426,wydmgcq
106000149.0,면목두산아파트2차,37.5811079,127.0848478,wydmgck
106000147.0,사가정센트럴아이파크아파트,37.5813242,127.0822156,wydmgc6
106000474.0,늘푸른근린공원,37.5829167,127.0799,wydmgcb
106000474.0,늘푸른근린공원,37.5828907,127.0798503,wydmgcb
106000024.0,장안시장.중랑구치매지원센터,37.5853667,127.08,wydmgf0
106000024.0,장안시장,37.585341,127.0800312,wydmgf0
106000129.0,하나은행면목지점,37.586719,127.0809001,wydmgf3
106000131.0,면목복개천,37.587913,127.086043,wydmgft
106000133.0,지하철7호선면목역,37.5883969,127.088363,wydmgfy
106000135.0,농협앞,37.5891826,127.0919716,wydmu4c
106000137.0,혜원여중고후문,37.590197,127.09618,wydmu5h
106000094.0,삼용사입구,37.596944,127.1004181,wydmuhr
106000047.0,금란교회앞,37.6001227,127.1028947,wydmukc
106000229.0,망우동고개,37.6012829,127.1083597,wydmumj
106000232.0,망우동금호어울림아파트,37.6023627,127.1080906,wydmumm
106000234.0,서울특별시북부병원,37.6039665,127.1072231,wydmums
106000236.0,양원역입구,37.6056398,127.1063013,wydmumg
106000237.0,양원리,37.6092571,127.1067714,wydmuqs
106000239.0,동서울교회,37.6117249,127.1051636,wydmur5
106000454.0,신내역1번출구,37.6125902,127.1030997,wydmur1
106000205.0,신내능마을,37.6144667,127.1017167,wydmur8
106000205.0,신내능마을,37.6143619,127.1016592,wydmur2
106000203.0,중랑경찰서후문,37.6195,127.10495,wydqh27
106000203.0,중랑경찰서후문,37.6197006,127.1052569,wydqh27
106000471.0,우디안아파트114동앞,37.6191833,127.1070167,wydqh2k
106000471.0,우디안아파트114동앞,37.6193259,127.1070735,wydqh2k
106000457.0,새솔초등학교,37.61755,127.108,wydqh2j
106000457.0,새솔초등학교,37.6173392,127.1085201,wydqh2j
106000461.0,신내데시앙포레아파트222동앞,37.6165667,127.1108667,wydmurz
106000461.0,신내데시앙포레아파트222동앞,37.616499,127.110883,wydmurz
106000459.0,신내데시앙포레아파트220동앞,37.6155667,127.1126,wydmux8
106000459.0,신내데시앙포레아파트220동앞,37.6155449,127.1126668,wydmux8
106000462.0,당너머,37.613,127.1078,wydmurj
106000462.0,당너머,37.6132445,127.1076805,wydmurk
106000480.0,중랑공영차고지.종점,37.6133839,127.1044676,wydmur6
123000660.0,복정역환승센터3번승강장,37.4700333,127.1272667,wydmhv5
123000660.0,복정역환승센터3번승강장,37.4699297,127.1275897,wydmhv5
123000631.0,위례31단지.위례포레샤인후문,37.4745833,127.13365,wydmhyp
123000631.0,위례31단지.위례포레샤인후문,37.4744546,127.1333813,wydmhyp
123000576.0,위례아이파크아파트앞,37.4757167,127.1411333,wydmjnj
123000576.0,위례아이파크아파트앞,37.4758687,127.1411478,wydmjnm
123000667.0,서울위례별초교.위례별유치원,37.47805,127.1446167,wydmjnx
123000667.0,서울위례별초교.위례별유치원,37.478075,127.1446468,wydmjnx
123000680.0,위례포레샤인17단지후문,37.4843667,127.1479667,wydmjrf
123000680.0,위례포레샤인17단지후문,37.4843629,127.1480094,wydmjrf
123000679.0,덕수고등학교,37.4852167,127.1462333,wydmjrc
123000679.0,덕수고등학교,37.485193,127.1461962,wydmjrc
123000673.0,위례포레샤인17단지정문,37.4872667,127.1490167,wydmm27
123000673.0,위례포레샤인17단지정문,37.4872143,127.1490396,wydmm27
123000652.0,위례포레샤인18단지,37.48915,127.1524667,wydmm2t
123000652.0,위례포레샤인18단지,37.4890949,127.1524886,wydmm2t
123000197.0,비호아파트,37.4922167,127.15405,wydmm3n
123000197.0,비호아파트,37.492178,127.15409,wydmm3n
123000188.0,송파파크센트럴,37.4929333,127.1490333,wydmm37
123000188.0,송파파크센트럴,37.492941,127.148924,wydmm37
123000187.0,거여역4번출구,37.4930667,127.1457,wydmm32
123000187.0,거여역4번출구,37.4931392,127.1456917,wydmm32
123000180.0,거여역,37.4941,127.1426333,wydmm1w
123000180.0,거여역,37.494054,127.1426661,wydmm1w
123000162.0,보인고교.오금동삼성아파트,37.4964,127.1383167,wydmm45
123000162.0,보인고교.오금동삼성아파트,37.4963426,127.1383457,wydmm45
123000161.0,오금동상아아파트,37.4976833,127.1359,wydmm41
123000161.0,오금동상아아파트,37.4976538,127.135938,wydmm41
123000255.0,송파중학교,37.4964167,127.1314667,wydmkfn
123000255.0,송파중학교,37.4963729,127.1315012,wydmkfn
123000267.0,가락동쌍용아파트앞,37.494,127.1298333,wydmkct
123000267.0,가락동쌍용아파트앞,37.4939454,127.1298582,wydmkct
123000253.0,가락동미륭아파트,37.4927167,127.1282167,wydmkc7
123000253.0,가락동미륭아파트,37.4926622,127.1282354,wydmkc7
123000274.0,문정1동주민센터.로데오거리,37.4907333,127.1245167,wydmkbc
123000274.0,문정1동주민센터.로데오거리,37.4907107,127.1245194,wydmkbc
123000273.0,문정로데오거리입구,37.4905,127.1204333,wydmk8y
123000273.0,문정로데오거리입구,37.4904599,127.1204716,wydmk8y
123000009.0,가락시장.가락시장역(중),37.4944167,127.1171333,wydmk9e
123000009.0,가락시장.가락시장역,37.4943822,127.1171609,wydmk9e
123000007.0,송파역(중),37.50025,127.1118,wydmk6x
123000007.0,송파역,37.5002084,127.1118384,wydmkd8
123000005.0,석촌역(중),37.5032,127.1091167,wydmk7n
123000005.0,석촌역,37.5034082,127.1089442,wydmk7m
123000003.0,석촌호수.한솔병원(중),37.50685,127.1057833,wydmk7g
123000003.0,석촌호수.한솔병원,37.5068001,127.1058262,wydmk7g
123000049.0,잠실역.롯데월드,37.5128,127.0974167,wydmkhv
123000049.0,잠실역.롯데월드,37.5128993,127.0979457,wydmkjj
123000050.0,잠실5단지,37.51225,127.0939,wydmkhf
123000050.0,잠실5단지,37.5122132,127.0939144,wydmkhf
123000052.0,잠실새내역.잠실2동주민센터,37.5118167,127.0872667,wydm7uy
123000052.0,잠실새내역.잠실2동주민센터,37.5117722,127.0872805,wydm7uy
123000053.0,잠실엘스아파트앞,37.5119167,127.0833667,wydm7ug
123000053.0,잠실엘스아파트앞,37.5118706,127.0833904,wydm7ug
123000054.0,종합운동장사거리,37.51205,127.0796833,wydm7ub
123000054.0,종합운동장사거리,37.5120092,127.0796916,wydm7ub
123000055.0,잠실종합운동장,37.5110833,127.07215,wydm7se
123000055.0,잠실종합운동장,37.5111175,127.0720732,wydm7se
122000093.0,강남경찰서면허시험장,37.5098833,127.0657167,wydm7kq
122000093.0,강남경찰서면허시험장,37.5099462,127.0657996,wydm7kq
122000094.0,삼성역7번출구,37.5104667,127.0627333,wydm7ks
122000094.0,삼성역7번출구,37.5104082,127.0627189,wydm7ks
122000089.0,봉은사역3번출구.삼성1파출소,37.51515,127.06015,wydm7m6
122000089.0,봉은사역3번출구.삼성1파출소,37.5151079,127.0601628,wydm7m6
122000085.0,청담역.경기고교,37.5192333,127.0579333,wydm7q0
122000085.0,청담역.경기고교,37.5191874,127.0579408,wydm7q0
122000069.0,우리은행청담지점.청담삼익아파트,37.5211167,127.0568833,wydm7nx
122000069.0,우리은행청담지점.청담삼익아파트,37.5210303,127.0568458,wydm7nr
122000066.0,영동교입구.청담자이아파트,37.5228333,127.0559667,wydm7nz
122000066.0,영동교입구.청담자이아파트,37.5227837,127.0560022,wydm7nz
104000127.0,영동대교북단,37.5366,127.0611,wydme37
104000127.0,영동대교북단,37.536568,127.0611623,wydme37
104000123.0,노룬산시장,37.5395333,127.0626333,wydme3u
104000123.0,노룬산시장,37.5395029,127.0626912,wydme3u
104000124.0,건대입구역,37.5408833,127.06725,wydme6p
104000124.0,건대입구역6번출구,37.5408268,127.0672788,wydme6p
104000157.0,화양리,37.54805,127.07135,wydmee6
104000157.0,광진광장,37.5480152,127.0713618,wydmee6
103000108.0,화양사거리,37.54705,127.06655,wydme7p
103000108.0,화양사거리,37.5470178,127.0665273,wydme7p
103000109.0,성수초등학교,37.5429333,127.0642333,wydme6m
103000109.0,성수사거리.성수초등학교,37.5428884,127.0642659,wydme6m
103000091.0,노룬산시장앞,37.5394167,127.0622,wydme3g
103000091.0,경수중학교,37.5396998,127.0622986,wydme3g
103000090.0,영동대교북단,37.5367667,127.0606333,wydme36
103000090.0,영동대교북단,37.5367692,127.0606419,wydme36
122000067.0,영동교입구,37.5223667,127.05535,wydm7nw
122000067.0,영동교입구,37.5223335,127.0553581,wydm7nw
122000068.0,청담역.경기고교,37.5208167,127.0562,wydm7nr
122000068.0,청담역.경기고교,37.5207652,127.0562111,wydm7nr
122000086.0,봉은사.삼성1파출소앞,37.5150167,127.0594,wydm7m3
122000086.0,봉은사.삼성1파출소앞,37.5149677,127.0594353,wydm7m3
122000095.0,무역센터,37.5119667,127.061,wydm7kf
122000095.0,무역센터,37.5111539,127.0615406,wydm7ke
122000140.0,강남경찰서.강남운전면허시험장,37.5097667,127.06705,wydm7kr
122000140.0,강남경찰서.강남운전면허시험장,37.5097831,127.0671559,wydm7kr
123000065.0,잠실종합운동장,37.5105667,127.0727667,wydm7se
123000065.0,잠실종합운동장,37.5104187,127.0728158,wydm7se
123000068.0,종합운동장사거리,37.5116,127.07945,wydm7ub
123000068.0,종합운동장사거리,37.5116128,127.0795554,wydm7ub
123000069.0,잠실새내역4번출구,37.5114167,127.0843333,wydm7ue
123000069.0,잠실새내역4번출구,37.5114066,127.0844951,wydm7us
123000056.0,잠실트리지움아파트앞,37.5115167,127.0912,wydmkhb
123000056.0,잠실트리지움아파트앞,37.5115116,127.091202,wydmkhb
123000057.0,잠실역.롯데월드,37.5125167,127.0980667,wydmkhv
123000057.0,잠실역.롯데월드,37.5124116,127.0981962,wydmkhy
123000004.0,석촌호수.한솔병원(중),37.5071833,127.1052833,wydmk7g
123000004.0,석촌호수.한솔병원,37.5071052,127.105252,wydmk7g
123000006.0,석촌역(중),37.5038333,127.1083667,wydmk7m
123000006.0,석촌역,37.5036628,127.1084537,wydmk7m
123000008.0,송파역(중),37.5006667,127.1112,wydmk6z
123000008.0,송파역,37.5005992,127.1112327,wydmk6z
123000010.0,가락시장.가락시장역(중),37.4948333,127.11655,wydmk9e
123000010.0,가락시장.가락시장역,37.4949314,127.1164834,wydmk9e
123000229.0,문정1동주민센터.로데오거리,37.4904833,127.12465,wydmkbc
123000229.0,문정1동주민센터.로데오거리,37.4904186,127.1246795,wydmkbc
123000239.0,문정현대아파트,37.4928333,127.1290667,wydmkck
123000239.0,문정현대아파트,37.4927865,127.1290985,wydmkck
123000254.0,가락동쌍용아파트,37.4944333,127.1304,wydmkct
123000254.0,가락동쌍용아파트,37.4943836,127.1304312,wydmkct
123000266.0,가락동극동아파트,37.4963,127.1318,wydmkcy
123000266.0,가락동극동아파트,37.4962572,127.1318312,wydmkcy
123000257.0,개롱역3번출구,37.4976833,127.1352333,wydmm41
123000257.0,개롱역3번출구,37.4976428,127.135256,wydmm41
123000258.0,삼환아파트,37.4965,127.1374333,wydmm44
123000258.0,삼환아파트,37.496575,127.137465,wydmm44
123000181.0,거여역현대아파트,37.4939,127.1423333,wydmm1w
123000181.0,거여역현대아파트,37.493849,127.1423502,wydmm1w
123000186.0,거여역5번출구,37.4929167,127.1456667,wydmm32
123000186.0,거여역5번출구,37.4928063,127.1461187,wydmm32
123000311.0,송파파크센트럴,37.49275,127.1494833,wydmm37
123000311.0,송파파크센트럴,37.4926552,127.1495066,wydmm37
123000189.0,종점,37.4927833,127.1527167,wydmm3m
123000189.0,종점,37.492768,127.152763,wydmm3m
123000190.0,비호아파트,37.49195,127.1542833,wydmm3n
123000190.0,비호아파트,37.4918948,127.1543102,wydmm3n
123000653.0,위례포레샤인18단지,37.4891,127.152,wydmm2t
123000653.0,위례포레샤인18단지,37.4892098,127.1518904,wydmm2t
123000672.0,위례포레샤인17단지정문,37.4870333,127.1481833,wydmm26
123000672.0,위례포레샤인17단지정문,37.4871132,127.1481048,wydmm26
123000678.0,덕수고등학교,37.4853,127.1460167,wydmjrb
123000678.0,덕수고등학교,37.4852739,127.1459978,wydmjrb
123000681.0,송파위례리슈빌,37.4843,127.14725,wydmjrc
123000681.0,송파위례리슈빌,37.4842905,127.1472906,wydmjrc
123000637.0,서울위례별초교,37.4783167,127.1438333,wydmjnx
123000637.0,서울위례별초교,37.478302,127.1440274,wydmjnx
123000575.0,송파꿈에그린아파트,37.475,127.1407167,wydmjnj
123000575.0,송파꿈에그린아파트,37.4749448,127.1407699,wydmjnj
123000630.0,위례포레샤인.위례31단지후문,37.4748333,127.1339167,wydmjn0
123000630.0,위례포레샤인.위례31단지후문,37.4747526,127.1334296,wydmhyp
123000436.0,복정역환승주차장,37.4707,127.1281333,wydmhv7
123000436.0,복정역환승주차장,37.470728,127.128144,wydmhv7
123000354.0,장지공영차고지,37.4806401,127.1359435,wydmjp1
123000658.0,위례포레샤인13단지,37.4827315,127.1389686,wydmjpe
123000656.0,호반써밋송파2차,37.4833667,127.14055,wydmjps
123000656.0,호반써밋송파2차,37.4835845,127.140824,wydmjpt
123000671.0,호반써밋송파2차,37.4850314,127.1424816,wydmjpy
123000196.0,마천역.송파파크센트럴,37.4935167,127.1522167,wydmm3m
123000196.0,마천역.송파파크센트럴,37.4934555,127.1522337,wydmm3m
123000195.0,마천1동주민센터,37.4957333,127.1499,wydmm3g
123000195.0,마천1동주민센터,37.4957103,127.1498825,wydmm3g
123000213.0,마천2동주민센터,37.4970667,127.1479833,wydmm64
123000213.0,마천2동주민센터,37.4970139,127.1480088,wydmm64
123000212.0,마천2동윤진빌딩.신동아아파트,37.4996759,127.1442444,wydmm4x
123000164.0,거여초등학교,37.5025481,127.1402155,wydmm5h
123000178.0,오금동사거리,37.5027833,127.1378833,wydmm54
123000178.0,오금동사거리,37.5027436,127.1378915,wydmm54
123000176.0,송파도서관,37.5000333,127.1358333,wydmm49
123000176.0,송파도서관,37.4999787,127.1358517,wydmm49
123000160.0,오금공원앞,37.4992,127.1330667,wydmkfx
123000160.0,오금공원앞,37.4991573,127.1331008,wydmkfx
123000159.0,오금동현대아파트,37.50335,127.1264167,wydmkg6
123000159.0,오금동현대아파트,37.5032944,127.1264326,wydmkg6
123000135.0,한양.삼익아파트,37.5059833,127.1215833,wydmkez
123000135.0,한양삼익아파트,37.5059514,127.1216253,wydmkez
123000112.0,송파동한양1차아파트,37.5059692,127.1155208,wydmkef
123000111.0,송파2동한양아파트,37.5038731,127.1138832,wydmke3
123000364.0,잠실여고후문,37.502501,127.111619,wydmk7p
123000059.0,잠실트리지움,37.5109779,127.0926278,wydmkhd
123000061.0,영동일고트리지움APT정문앞,37.509037,127.091732,wydmkh3
123000082.0,잠실119안전센터,37.5070833,127.0929167,wydmk5f
123000082.0,잠실119안전센터,37.5070038,127.0929452,wydmk5f
123000081.0,삼학사길사거리,37.5046424,127.0969939,wydmk5t
123000079.0,송파구민회관구의회,37.5027,127.0947333,wydmk55
123000079.0,송파구민회관구의회,37.5027059,127.0947575,wydmk55
123000078.0,삼전사거리,37.50395,127.0897667,wydm7gr
123000078.0,삼전역,37.5039542,127.0897903,wydm7gr
123000071.0,잠실우성4차현대아파트,37.5052624,127.0852075,wydm7gs
123000073.0,잠실근린공원.성현교회,37.506322,127.0814987,wydm7gc
123000075.0,아시아선수촌아파트,37.5098569,127.0790366,wydm7u2
123000066.0,아시아선수촌아파트,37.51041,127.0784474,wydm7sx
123000074.0,아시아선수촌아파트삼거리.성현교회,37.5061437,127.0808025,wydm7gc
123000072.0,잠실우성4차현대아파트,37.5048198,127.0854796,wydm7gs
123000077.0,삼전사거리,37.5039,127.0889167,wydm7gr
123000077.0,삼전역,37.5038161,127.088909,wydm7gr
123000080.0,송파구민회관구의회,37.5024667,127.0945667,wydmk55
123000080.0,송파구민회관구의회,37.5023772,127.0945705,wydmk55
123000094.0,삼학사길사거리,37.504269,127.097278,wydmk5m
123000064.0,잠실119안전센터,37.5070833,127.0947167,wydmk5g
123000064.0,잠실119안전센터,37.5070078,127.0947494,wydmk5g
123000060.0,영동일고레이크팰리스앞,37.5088084,127.0921466,wydmkh3
123000058.0,갤러리아팰리스,37.5113174,127.0929234,wydmkhd
123000120.0,잠실여고후문,37.50255,127.11205,wydmke0
123000120.0,잠실여고후문,37.50255,127.1122298,wydmke0
123000119.0,한양공원,37.5037333,127.1139333,wydmke3
123000119.0,한양공원,37.503707,127.113797,wydmke3
123000118.0,송파2동한양삼성아파트,37.5060833,127.1158,wydmkef
123000118.0,송파2동한양삼성아파트,37.5059979,127.1157233,wydmkef
123000117.0,삼익아파트미성아파트,37.5061333,127.1203667,wydmkey
123000117.0,삼익아파트미성아파트,37.5060869,127.1203825,wydmkey
123000278.0,송파경찰서,37.5027333,127.1267333,wydmkg4
123000278.0,송파경찰서.오금역,37.5026804,127.1267629,wydmkg4
123000635.0,오금역3번출구,37.5014608,127.1287671,wydmkfu
123000177.0,우창아파트,37.4997505,127.1360639,wydmm49
123000179.0,오금동사거리,37.502775,127.138162,wydmm55
123000165.0,거여초등학교,37.50241,127.140012,wydmm5h
123000211.0,마천2동윤진빌딩.신동아아파트,37.4997151,127.1438724,wydmm4x
123000193.0,마천2동주민센터,37.49725,127.14745,wydmm61
123000193.0,마천2동주민센터,37.4970173,127.1477248,wydmm64
123000192.0,마천1동주민센터,37.4953167,127.1502833,wydmm3u
123000192.0,마천1동주민센터,37.4955822,127.1498251,wydmm3g
123000654.0,마천역.송파파크센트럴,37.4943,127.1512833,wydmm3s
123000654.0,마천역.송파파크센트럴,37.4942476,127.1513064,wydmm3s
123000670.0,위례포레샤인15단지,37.4853102,127.1431924,wydmjpy
123000655.0,호반써밋송파1차,37.484,127.14045,wydmjpu
123000655.0,호반써밋송파1차,37.4843422,127.1405075,wydmjpu
123000657.0,위례포레샤인13단지,37.4833189,127.1381854,wydmjpe
123000677.0,위례포레샤인13단지공원,37.4830231,127.1360736,wydmjp9
123000355.0,장지공영차고지,37.480357,127.1359033,wydmjp1
124000344.0,강동공영차고지,37.5643167,127.1745667,wydmtym
124000344.0,강동공영차고지,37.564251,127.174627,wydmtym
124000209.0,강일초등학교,37.5650333,127.1758167,wydmtyw
124000209.0,강일초등학교,37.565095,127.175752,wydmtyw
124000469.0,강일역2번출구,37.5579167,127.17725,wydmtvp
124000469.0,강일역2번출구,37.5579846,127.1772337,wydmtvp
124000368.0,고덕리엔파크2단지.3단지,37.5572833,127.1736833,wydmtvj
124000368.0,강일역.고덕리엔파크2단지.3단지,37.557338,127.1737391,wydmtvj
124000031.0,상일동역4번출구.센트럴푸르지오,37.5571833,127.1692833,wydmtv1
124000031.0,상일동역4번출구.센트럴푸르지오,37.5572232,127.1692516,wydmtv1
124000033.0,상일동역1번출구,37.5566,127.1644,wydmtsy
124000033.0,상일동역1번출구,37.556588,127.1644476,wydmtsy
124000035.0,고덕그라시움,37.5560833,127.1608,wydmtsg
124000035.0,고덕그라시움,37.5560578,127.1608318,wydmtsg
124000037.0,고덕평생학습관.온조대왕체육관,37.5557333,127.1581667,wydmtsc
124000037.0,고덕평생학습관.온조대왕체육관,37.5556884,127.1581417,wydmtsc
124000078.0,강동아트센터.강동경희대병원,37.5523833,127.1561,wydmts0
124000078.0,강동아트센터.강동경희대병원,37.5523444,127.1561087,wydmts0
124000149.0,명일동현대아파트,37.54925,127.1532833,wydmt7w
124000149.0,명일동현대아파트,37.549385,127.1532833,wydmt7w
124000151.0,고덕삼환.주공9단지아파트,37.5492333,127.15155,wydmt7s
124000151.0,고덕삼환.주공9단지아파트,37.5493637,127.1515184,wydmt7s
124000153.0,명일여자고등학교,37.5493833,127.1483667,wydmt7d
124000153.0,명일여자고등학교,37.5494552,127.1484178,wydmt7d
124000155.0,명일1동주민센터,37.5504,127.1462333,wydmt7c
124000155.0,명일1동주민센터,37.550478,127.146272,wydmt7c
124000123.0,명일역1번출구.명일전통시장,37.55035,127.14405,wydmt5z
124000123.0,명일역1번출구.명일전통시장,37.5500246,127.1436702,wydmt5z
124000125.0,굽은다리사거리,37.54795,127.1433333,wydmt5q
124000125.0,굽은다리사거리,37.5479101,127.1433278,wydmt5q
124000405.0,굽은다리역구민회관.강동홈플러스,37.5454167,127.1426667,wydmt4y
124000405.0,굽은다리역구민회관.강동홈플러스,37.545358,127.1427152,wydmt4y
124000127.0,십자성마을,37.5435,127.1419833,wydmt4t
124000127.0,십자성마을,37.5434576,127.1419714,wydmt4t
124000195.0,천동초교입구사거리,37.5399833,127.1406833,wydmt1v
124000195.0,천동초교입구사거리,37.5399404,127.1406623,wydmt1v
124000129.0,길동역1번출구,37.5380167,127.1399333,wydmt1s
124000129.0,길동역1번출구,37.5379724,127.13994,wydmt1s
124000131.0,예닮요양병원,37.5355667,127.13895,wydmt15
124000131.0,서울프라임한방병원,37.5355253,127.1389352,wydmt15
124000133.0,혜림교회앞,37.5314167,127.1373333,wydmt06
124000133.0,강동리바트,37.5313641,127.137332,wydmt06
124000135.0,둔촌동역4번출구,37.5282833,127.1361,wydmmpc
124000135.0,둔촌동역4번출구,37.5282558,127.1361248,wydmmpc
124000137.0,둔촌종합상가,37.5235667,127.1343333,wydmmnb
124000137.0,서울성내동우체국,37.5235199,127.1343603,wydmmnb
123000153.0,보성중고등학교,37.51935,127.1327333,wydmkyp
123000153.0,보성중고등학교,37.5200907,127.1330532,wydmkyr
123000154.0,올림픽공원역,37.51675,127.1309,wydmkvt
123000154.0,올림픽공원역,37.5167177,127.1308988,wydmkvt
123000149.0,올림픽공원장미광장,37.5128167,127.12635,wydmkuf
123000149.0,올림픽공원장미광장,37.5127209,127.126375,wydmkuf
123000150.0,올림픽공원남2문,37.5145833,127.1219167,wydmktr
123000150.0,올림픽공원남2문,37.5145024,127.1220284,wydmktr
123000584.0,한성백제박물관,37.5155,127.1193667,wydmktm
123000584.0,한성백제박물관,37.5155044,127.1194168,wydmktm
123000151.0,몽촌토성역.한성백제역,37.5172667,127.11455,wydmktc
123000151.0,몽촌토성역.한성백제역,37.5171889,127.114529,wydmktc
123000039.0,신천동진주아파트,37.51665,127.1093333,wydmkmw
123000039.0,신천동진주아파트,37.5166152,127.1094861,wydmkmw
123000046.0,잠실역9번출구,37.5148667,127.10405,wydmkm6
123000046.0,잠실역9번출구,37.5148007,127.1040886,wydmkm6
123000294.0,가락시장.가락시장역,37.4938333,127.1171833,wydmk9e
123000294.0,가락시장.가락시장역,37.4937628,127.1171509,wydmk9e
123000295.0,가락시장.가락몰,37.4918833,127.11585,wydmk94
123000295.0,가락시장.가락몰,37.491843,127.115874,wydmk94
123000296.0,가락시장남문,37.4907833,127.1123667,wydmk8b
123000296.0,가락시장남문,37.4907995,127.1124034,wydmk8b
122000297.0,수서역.KT수서지점,37.4872333,127.1007167,wydmk0r
122000297.0,수서역KT수서지점,37.4871885,127.1007358,wydmk0r
122000299.0,궁마을,37.4854,127.0972333,wydmk0j
122000299.0,궁마을,37.4853495,127.097246,wydmhpv
122000348.0,태화기독교.사회복지관,37.4845667,127.0932333,wydmhpf
122000348.0,태화기독교.사회복지관,37.4845282,127.0933527,wydmhpf
122000276.0,수서삼성아파트앞,37.4844667,127.091,wydmhpb
122000276.0,수서삼성아파트앞,37.4843993,127.0909893,wydmhpb
122000277.0,일원본동주민센터,37.48355,127.08485,wydm5zs
122000277.0,일원본동주민센터,37.4834885,127.0847497,wydm5zs
122000282.0,삼성서울병원정문,37.4864833,127.08305,wydm7b5
122000282.0,삼성서울병원정문,37.4865445,127.0829902,wydm7b5
122000258.0,연금매점,37.4882833,127.0747667,wydm78t
122000258.0,연금매점,37.4882473,127.0747982,wydm78t
122000255.0,공무원아파트,37.4922833,127.0757667,wydm79m
122000255.0,디에이치자이개포아파트,37.4922272,127.0757916,wydm79m
122000293.0,대청역,37.4933,127.0788667,wydm7c2
122000293.0,대청역,37.4932344,127.0788924,wydm7c2
122000346.0,영희초등학교,37.49125,127.0805,wydm7c1
122000346.0,영희초등학교,37.4911914,127.0804871,wydm7c1
122000724.0,래미안개포루체하임아파트,37.48935,127.0814333,wydm7b9
122000724.0,래미안개포루체하임아파트,37.4893482,127.0813369,wydm7b9
122000283.0,삼성서울병원정문건너편,37.4870833,127.0824333,wydm7b6
122000283.0,삼성서울병원정문건너편,37.4870251,127.0824491,wydm7b6
122000284.0,일원역,37.4851667,127.0832667,wydm5zg
122000284.0,일원역,37.4851178,127.0832793,wydm5zg
122000280.0,일원본동주민센터,37.4834167,127.0857667,wydm5zt
122000280.0,일원본동주민센터,37.4833831,127.0859753,wydm5zt
122000338.0,시립수서청소년수련관,37.4839333,127.08945,wydm5zx
122000338.0,시립수서청소년수련관,37.483863,127.089107,wydm5zx
122000281.0,수서119.안전센터앞,37.4842833,127.0925833,wydmhpc
122000281.0,수서119.안전센터앞,37.4843205,127.0937686,wydmhpf
122000300.0,궁마을,37.4852333,127.0975333,wydmhpv
122000300.0,궁마을,37.4852808,127.0976066,wydmhpv
122000303.0,수서역.로즈데일빌딩,37.4873833,127.1028333,wydmk23
122000303.0,수서역.로즈데일빌딩,37.4873984,127.1028677,wydmk23
123000243.0,문정2동주민센터.청소년수련관,37.4905,127.1124,wydmk8b
123000243.0,문정2동주민센터.청소년수련관,37.4904768,127.1125408,wydmk8b
123000244.0,훼미리근린공원,37.4912333,127.1148667,wydmk94
123000244.0,훼미리근린공원,37.4911854,127.11491,wydmk94
123000045.0,잠실역1번.11번출구,37.5139667,127.1029667,wydmkm1
123000045.0,잠실역1번.11번출구,37.514152,127.1030252,wydmkm1
123000127.0,잠실진주아파트,37.5162167,127.10965,wydmkmw
123000127.0,잠실진주아파트,37.5161753,127.1096189,wydmkmw
123000305.0,몽촌토성역.한성백제역,37.5168667,127.1134833,wydmkt9
123000305.0,몽촌토성역.한성백제역,37.5168773,127.1134131,wydmkt9
123000128.0,올림픽베어스타운아파트앞,37.5149,127.1191,wydmktm
123000128.0,올림픽베어스타운아파트앞,37.514828,127.1191035,wydmktm
123000132.0,올림픽공원남2문,37.5140333,127.1215667,wydmktp
123000132.0,올림픽공원남2문,37.5139722,127.1215535,wydmktp
123000133.0,올림픽공원장미광장,37.5127167,127.1249,wydmkuc
123000133.0,올림픽공원장미광장,37.5126512,127.1249201,wydmkuc
123000157.0,올림픽선수촌아파트,37.5132333,127.12935,wydmkvh
123000157.0,올림픽선수촌아파트,37.5131692,127.1292671,wydmkvh
123000155.0,올림픽공원역,37.5163833,127.1314333,wydmkvw
123000155.0,올림픽공원역,37.5163242,127.1314785,wydmkvw
123000152.0,보성중고등학교,37.5195833,127.13345,wydmkyp
123000152.0,보성중고등학교,37.5205247,127.1338686,wydmmn2
124000138.0,둔촌종합상가,37.5248333,127.1354,wydmmp1
124000138.0,한국전력공사강동송파지사,37.5247612,127.135469,wydmmp1
124000136.0,둔촌동역2번출구,37.5276333,127.1365,wydmmp9
124000136.0,둔촌동역2번출구,37.5275876,127.1365195,wydmmp9
124000134.0,동명약국앞,37.5306833,127.1376167,wydmt06
124000134.0,동명약국앞,37.530647,127.1375191,wydmt04
124000132.0,예닮요양병원,37.5352,127.1391833,wydmt15
124000132.0,서울프라임한방병원,37.5351257,127.1392535,wydmt15
124000130.0,길동역3번출구,37.5373667,127.1399667,wydmt1k
124000130.0,길동역3번출구,37.5373136,127.1400078,wydmt1k
124000194.0,천동초교입구사거리,37.54,127.1410167,wydmt1v
124000194.0,천동초교입구사거리,37.5399553,127.141012,wydmt1v
124000128.0,십자성마을,37.5430167,127.1421,wydmt4q
124000128.0,십자성마을,37.542979,127.1421222,wydmt4q
124000406.0,굽은다리역구민회관.강동홈플러스,37.54565,127.1431167,wydmt4y
124000406.0,굽은다리역구민회관.강동홈플러스,37.545612,127.143063,wydmt4y
124000126.0,굽은다리사거리,37.5473167,127.1435333,wydmt5r
124000126.0,굽은다리사거리,37.5472655,127.1435586,wydmt5r
124000124.0,명일역4번출구.명일전통시장,37.5500667,127.14365,wydmt5z
124000124.0,명일역4번출구.명일전통시장,37.5503142,127.1440658,wydmt5z
124000156.0,명일1동주민센터,37.5502667,127.1462667,wydmt7c
124000156.0,명일1동주민센터,37.5502386,127.1462409,wydmt7c
124000154.0,명일여자고등학교,37.5491333,127.14895,wydmt7e
124000154.0,명일여자고등학교,37.5490799,127.1489775,wydmt7e
124000152.0,고덕삼환.주공9단지아파트,37.5491,127.1521667,wydmt7t
124000152.0,고덕삼환.주공9단지아파트,37.5490515,127.1521939,wydmt7t
124000150.0,한영중고한영외고,37.5491167,127.1554667,wydmt7x
124000150.0,한영중고한영외고,37.5490679,127.1554952,wydmt7x
124000079.0,강동아트센터.강동경희대병원후문,37.5510333,127.1564667,wydmteb
124000079.0,강동아트센터.강동경희대병원후문,37.5509949,127.1565303,wydmteb
124000077.0,강동경희대병원.명일동이마트,37.5545833,127.1567333,wydmts8
