stat_id,stat_name,lat,lng,geohash
100000415.0,국립고궁박물관,37.5787966,126.9740462,wydmc3
100000416.0,청와대,37.5827467,126.9737776,wydmc3
100000417.0,춘추문,37.5829107,126.9797313,wydmc3
100000418.0,경복궁.국립민속박물관,37.5795319,126.9795002,wydmc3
108000382.0,영신여객차고지(우이동종점),37.6628289,127.0119655,wydq60
108000014.0,우이동도선사입구.북한산우이역,37.6624998,127.0128184,wydq60
108000015.0,우이동성원아파트,37.660809,127.013424,wydq4r
108000017.0,진성빌라사거리,37.6596909,127.0137598,wydq4r
108000018.0,서라벌중학교.우이동대우아파트,37.654607,127.012832,wydq4n
108000019.0,덕성여대솔밭근린공원,37.6513809,127.0126091,wydq4n
108000020.0,국립4.19민주묘지입구사거리,37.6491109,127.0137114,wydq4m
108000032.0,인수동장미원,37.6450333,127.0155272,wydq4m
108000034.0,가오리역,37.6418977,127.0165777,wydq4k
108000046.0,우이초등학교,37.6365089,127.017114,wydq47
108000068.0,화계사입구,37.6333403,127.0174696,wydq46
108000070.0,빨래골입구.수유1동주민센터,37.6298588,127.0177651,wydq46
108000072.0,롯데마트삼양점.래미안1차아파트,37.6252947,127.018224,wydq43
108000074.0,삼양초등학교,37.6230732,127.0191278,wydq43
108000076.0,강북청소년문화정보도서관입구,37.621645,127.0202509,wydq42
108000078.0,삼양동사거리,37.6185,127.0211833,wydq42
108000078.0,삼양동사거리,37.6180883,127.0213079,wydq42
108000080.0,송천초등학교.미아뉴타운입구,37.6154833,127.0221,wydmfr
108000080.0,송천초등학교.미아뉴타운입구,37.6154596,127.0221103,wydmfr
107000081.0,미아초교,37.6115667,127.0220333,wydmfq
107000081.0,미아초교,37.6115318,127.0220389,wydmfq
107000083.0,길음동동부아파트,37.6078667,127.0232833,wydmfq
107000083.0,길음동동부아파트,37.6074364,127.0234369,wydmfq
107000003.0,길음뉴타운(중),37.60365,127.02415,wydmft
107000003.0,길음뉴타운,37.6036262,127.0241681,wydmft
107000005.0,미아리고개.미아리예술극장(중),37.59885,127.0217,wydmfk
107000005.0,미아리고개.미아리예술극장,37.5988112,127.021709,wydmfk
107000007.0,돈암사거리.성신여대입구(중),37.5937667,127.0181333,wydmf7
107000007.0,돈암사거리.성신여대입구,37.5937432,127.0181313,wydmf7
107000009.0,삼선교.한성대학교(중),37.5898667,127.0092333,wydmf5
107000009.0,삼선교.한성대학교,37.5898525,127.0092322,wydmf5
100000132.0,혜화역.서울연극센터(장면총리가옥),37.5840228,127.0013281,wydmcc
100000125.0,혜화역.서울대병원입구,37.5810636,127.0019395,wydmcc
100000126.0,방송통신대.이화장,37.5781296,127.0019937,wydmf0
100000127.0,이화동(이화장),37.5761193,127.0006951,wydmcb
100000076.0,창덕궁.서울돈화문국악당,37.5775405,126.9885394,wydmc8
100000369.0,안국역.서울공예박물관,37.5764011,126.9847682,wydmc8
100000106.0,조계사,37.5725167,126.9828167,wydm9x
100000106.0,조계사.종로경찰서,37.5724858,126.9828258,wydm9x
100000330.0,종로1가,37.5703667,126.98045,wydm9x
100000330.0,종로1가,37.57037,126.980129,wydm9x
100000023.0,KT광화문지사,37.5724333,126.9773167,wydm9r
100000023.0,KT광화문지사,37.5722264,126.977332,wydm9r
100000022.0,경복궁,37.5756167,126.9787333,wydmc2
100000022.0,경복궁,37.5755767,126.9787471,wydmc2
100000104.0,안국역.인사동,37.5757849,126.9842425,wydmc8
100000103.0,창덕궁.우리소리박물관,37.5772728,126.9886349,wydmc8
100000414.0,창덕궁.돈화문국악당,37.5773031,126.9910846,wydmcb
100000159.0,원남동사거리,37.5757228,126.9982146,wydmcb
100000122.0,현대그룹빌딩,37.57585,127.0005333,wydmcb
100000122.0,현대그룹빌딩,37.575873,127.000533,wydmcb
100000123.0,통신대(이화장),37.5781667,127.00245,wydmf0
100000123.0,방송통신대.이화장,37.578043,127.002437,wydmf0
100000124.0,혜화역.마로니에공원,37.58115,127.0022667,wydmf1
100000124.0,혜화역.마로니에공원,37.5811194,127.0022769,wydmf1
100000133.0,혜화역.동성중고(장면총리가옥),37.5846,127.0017167,wydmcf
100000133.0,혜화역.동성중고(장면총리가옥),37.5845697,127.0017176,wydmcf
107000010.0,삼선교.한성대학교.조소앙활동터(중),37.58935,127.0083667,wydmf4
107000010.0,삼선교.한성대학교.조소앙활동터,37.5893128,127.0083738,wydmf4
107000008.0,돈암사거리.성신여대입구(중),37.5933333,127.0178333,wydmf7
107000008.0,돈암사거리.성신여대입구,37.5933062,127.017839,wydmf7
107000006.0,미아리고개.미아리예술극장(중),37.59795,127.0218167,wydmfk
107000006.0,미아리고개.미아리예술극장,37.597921,127.0218209,wydmfk
107000033.0,돈암동삼성아파트입구,37.6019,127.0245667,wydmft
107000033.0,돈암동삼성아파트입구,37.6018744,127.0245753,wydmft
107000084.0,길음동동부아파트,37.6078333,127.0235333,wydmfq
107000084.0,길음동동부아파트,37.60781,127.0235409,wydmfq
107000082.0,미아초교,37.6109167,127.02245,wydmfq
107000082.0,미아초교,37.6108866,127.0224658,wydmfq
108000081.0,송천초등학교.미아뉴타운입구,37.6142167,127.0223,wydmfr
108000081.0,송천초등학교.미아뉴타운입구,37.6140963,127.0223138,wydmfr
108000079.0,삼양동사거리,37.6185667,127.02145,wydq42
108000079.0,삼양동사거리,37.6185334,127.0214576,wydq42
108000077.0,강북청소년문화정보도서관입구,37.6215172,127.0205867,wydq42
108000075.0,삼양초등학교,37.623407,127.019088,wydq43
108000073.0,롯데마트삼양점.래미안1차아파트,37.6253019,127.0184845,wydq43
108000071.0,빨래골입구.서울수유초등학교,37.630007,127.017982,wydq46
108000069.0,화계사입구,37.6332538,127.0177047,wydq46
108000047.0,우이초등학교,37.63681,127.017357,wydq47
108000035.0,가오리역,37.6416805,127.0168113,wydq4k
108000033.0,인수동장미원,37.6445998,127.0159997,wydq4k
108000021.0,국립4.19민주묘지입구사거리,37.649113,127.014019,wydq4m
109000135.0,덕성여대입구,37.65106,127.013138,wydq4q
109000134.0,서라벌중학교.우이동대우아파트,37.655025,127.013223,wydq4q
109000133.0,북서울교회,37.6572562,127.0136533,wydq4r
109000236.0,동아운수앞,37.658907,127.013997,wydq4r
108000016.0,우이동성원아파트,37.662045,127.013357,wydq62
108000383.0,영신여객차고지(우이동종점),37.6631389,127.0118528,wydq60
108000037.0,북부성모병원,37.6467578,127.0170948,wydq4m
108000038.0,수유2동주민센터우이시장,37.6450886,127.0194289,wydq4m
108000040.0,광산사거리,37.6433419,127.0218795,wydq4k
108000058.0,강북구청,37.640412,127.02602,wydq4s
108000378.0,수유(강북구청)역(중),37.6385167,127.0261,wydq4e
108000378.0,수유(강북구청)역,37.638477,127.0261,wydq4e
108000003.0,수유역(중),37.6366667,127.0241333,wydq4e
108000003.0,수유역,37.636659,127.0241165,wydq4e
108000005.0,수유시장.성신여대미아캠퍼스앞(중),37.6309,127.02425,wydq4d
108000005.0,수유시장.성신여대미아캠퍼스앞,37.6312262,127.0241719,wydq4d
108000007.0,미아역.신일중고(중),37.6249,127.0266333,wydq49
108000007.0,미아역.신일중고,37.6248696,127.0266493,wydq49
108000009.0,도봉세무서.성북시장(중),37.61975,127.0287167,wydq48
108000009.0,도봉세무서.성북시장,37.619714,127.0287194,wydq48
108000189.0,롯데백화점미아점,37.6147094,127.0307561,wydmfx
108000339.0,미아사거리역2번출구,37.6130228,127.0303904,wydmfx
108000364.0,방천시장입구,37.611477,127.03269,wydmfw
107000187.0,월곡1동주민센터,37.6105725,127.0353228,wydmfy
107000189.0,밤나무골시장,37.6094533,127.0356802,wydmfy
107000191.0,월곡동두산아파트,37.6066191,127.0365917,wydmfy
107000193.0,생명의전화,37.604518,127.037215,wydmfv
107000042.0,월곡역,37.601611,127.0415691,wydmfv
107000044.0,동덕여대앞,37.6030027,127.0428338,wydmfv
107000045.0,한국과학기술연구원입구,37.6055099,127.0474164,wydmgj
107000047.0,월곡중학교,37.606895,127.049787,wydmgn
107000049.0,새석관시장,37.6086333,127.0532472,wydmgn
107000505.0,돌곶이역8번출구,37.610303,127.056327,wydmgn
107000119.0,돌곶이역,37.6102045,127.0575578,wydmgq
107000121.0,석관시장,37.6086897,127.0590704,wydmgq
107000123.0,석관동새마을금고,37.6075718,127.060227,wydmgq
107000125.0,한국예술종합학교,37.6056471,127.0618293,wydmgm
105000046.0,의릉입구,37.6038755,127.0619229,wydmgm
105000044.0,이문동우체국,37.5993882,127.0617459,wydmgk
105000042.0,외대앞,37.5956282,127.0596059,wydmgk
105000040.0,경희중고,37.5930906,127.0579052,wydmg7
105000038.0,회기시장,37.5912026,127.0566389,wydmg5
105000233.0,회기동현대아파트,37.5890582,127.0543646,wydmg4
105000014.0,떡전교사거리.동대문노인복지관(중),37.5864667,127.05205,wydmg4
105000014.0,떡전교사거리.동대문노인복지관,37.5864983,127.0521094,wydmg4
105000228.0,청량리미주상가앞,37.5819579,127.0472557,wydmg1
105000402.0,청량리역환승센터,37.5807214,127.0454399,wydmfc
105000200.0,동대문중앙새마을금고,37.5830829,127.0413063,wydmfc
105000082.0,제기동주민센터.서울약령시앞,37.5819251,127.0383947,wydmfc
105000083.0,경동시장,37.5799644,127.0382838,wydmfc
105000555.0,경동시장사거리,37.5772293,127.0381091,wydmfb
105000080.0,동대문구청.용신동주민센터,37.5755032,127.038003,wydmfb
105000479.0,용두동신동아아파트,37.574045,127.0325997,wydmf8
105000097.0,서울시동부병원,37.5762333,127.0306833,wydmf8
105000097.0,서울시동부병원,37.5761901,127.0306952,wydmf8
105000482.0,제기동역.서울약령시장(중),37.5781333,127.0376167,wydmfb
105000482.0,제기동역.서울약령시,37.578139,127.0376239,wydmfb
105000488.0,청량리청과물도매시장,37.5789667,127.0418333,wydmfc
105000488.0,청량리수산시장,37.5789521,127.041895,wydmfc
105000447.0,청량리역환승센터(2번승강장),37.58035,127.0457167,wydmfc
105000447.0,청량리역환승센터,37.5803717,127.0456684,wydmfc
105000030.0,서울성심병원,37.58465,127.05085,wydmg4
105000030.0,서울성심병원,37.5846074,127.0508977,wydmg4
105000234.0,우산빌딩앞,37.5888833,127.05455,wydmg4
105000234.0,우산빌딩앞,37.5888823,127.054677,wydmg4
105000039.0,회기시장,37.5909655,127.0567417,wydmg5
105000041.0,경희중고,37.5933472,127.0583346,wydmg7
105000043.0,외대앞,37.5954812,127.0597677,wydmgk
105000045.0,이문동교회,37.6001017,127.0621282,wydmgk
105000047.0,의릉입구,37.6034852,127.0621763,wydmgm
107000126.0,한국예술종합학교,37.605537,127.0621021,wydmgm
107000124.0,석관동새마을금고,37.6072717,127.0609375,wydmgq
107000122.0,석관시장,37.6088158,127.0592358,wydmgq
107000052.0,돌곶이역,37.6105861,127.0562084,wydmgn
107000050.0,새석관시장,37.6087,127.0526018,wydmgn
107000048.0,월곡중학교,37.6068921,127.0491494,wydmgn
107000046.0,상월곡역,37.605489,127.046447,wydmgj
107000043.0,월곡역,37.602911,127.042212,wydmfv
107000041.0,성북구보건소,37.6025534,127.0392921,wydmfv
107000194.0,생명의전화,37.604394,127.0374571,wydmfv
107000192.0,월곡동두산아파트,37.6070029,127.0366463,wydmfy
107000190.0,월곡삼성래미안아파트,37.609399,127.035937,wydmfy
107000188.0,월곡1동주민센터,37.6105995,127.0355199,wydmfy
108000102.0,숭곡초등학교입구,37.6101,127.0320167,wydmfw
108000102.0,숭곡초등학교입구,37.610105,127.0320401,wydmfw
108000012.0,미아사거리역(중),37.6129167,127.0302,wydmfx
108000012.0,미아사거리역,37.6128943,127.0302131,wydmfx
108000010.0,도봉세무서.성북시장(중),37.6188667,127.0292333,wydq48
108000010.0,도봉세무서.성북시장,37.6188372,127.029248,wydq48
108000008.0,미아역.신일중고(중),37.6241333,127.0271167,wydq49
108000008.0,미아역.신일중고,37.6241099,127.027135,wydq49
108000006.0,수유시장.성신여대미아캠퍼스앞(중),37.6305667,127.0245333,wydq4d
108000006.0,수유시장.성신여대미아캠퍼스앞,37.6305307,127.0245722,wydq4d
108000004.0,수유역.강북구청(중),37.6375167,127.0252167,wydq4e
108000004.0,수유역.강북구청,37.6374887,127.0252317,wydq4e
108000059.0,강북구청,37.6404566,127.0263693,wydq4s
108000041.0,광산사거리,37.6437637,127.021837,wydq4k
108000039.0,수유2동주민센터우이시장,37.644893,127.020202,wydq4m
108000036.0,북부성모의원,37.646853,127.01746,wydq4m
113000180.0,월드컵파크7단지,37.5811667,126.8784333,wydjz1
113000180.0,월드컵파크7단지,37.5811497,126.8784199,wydjz1
113000196.0,상암DMC입구,37.5834667,126.8826167,wydjz3
113000196.0,상암DMC입구,37.583431,126.8826124,wydjz3
113000021.0,DMC첨단산업센터,37.5853167,126.8852167,wydjz6
113000021.0,DMC첨단산업센터,37.5852421,126.8853565,wydjz6
111000003.0,수색교(중),37.5858667,126.8885167,wydjz6
111000003.0,수색교,37.5857849,126.8884797,wydjz6
111000005.0,수색역앞(중),37.58325,126.8932667,wydjz9
111000005.0,수색역앞,37.583223,126.893238,wydjz9
111000007.0,디지털미디어시티역(중),37.5790667,126.90055,wydjz9
111000007.0,디지털미디어시티역,37.579005,126.9004947,wydjz9
112000001.0,북가좌동삼거리(중),37.5755167,126.9045667,wydjzb
112000001.0,북가좌동삼거리,37.5754463,126.9045265,wydjzb
112000003.0,DMC래미안e.편한세상요진아파트(중),37.57175,126.9096833,wydjxz
112000003.0,DMC래미안e.편한세상요진아파트,37.5716775,126.9096099,wydjxz
112000005.0,모래내시장.가좌역(중),37.5691167,126.9151,wydm8p
112000005.0,모래내시장.가좌역,37.5690774,126.9150627,wydm8p
112000007.0,사천교(중),37.5675333,126.9181833,wydm8n
112000007.0,사천교,37.5675152,126.9181448,wydm8n
112000027.0,연희104고지앞.구성산회관,37.5662667,126.9240167,wydm8n
112000027.0,연희104고지앞.구성산회관,37.5661693,126.9239773,wydm8n
113000135.0,연남동,37.5624833,126.9275,wydm8q
113000135.0,연남동,37.5625221,126.927541,wydm8q
113000421.0,동교동삼거리(중),37.5580333,126.9285833,wydm8m
113000421.0,동교동삼거리,37.558059,126.92854,wydm8m
113000421.0,동교동삼거리,37.5580596,126.9284587,wydm8m
113000420.0,신촌오거리.현대백화점(중),37.5554833,126.9356833,wydm8k
113000420.0,신촌오거리.현대백화점,37.555551,126.935581,wydm8k
113000420.0,신촌오거리.현대백화점,37.5553966,126.935893,wydm8k
113000419.0,신촌오거리.2호선신촌역(중),37.5561167,126.9402833,wydm8s
113000419.0,신촌오거리.2호선신촌역,37.556008,126.939948,wydm8s
113000419.0,신촌오거리.2호선신촌역,37.5560656,126.9401437,wydm8s
113000418.0,이대역(중),37.55665,126.9447333,wydm8s
113000418.0,이대역,37.556621,126.944551,wydm8s
113000418.0,이대역,37.556613,126.9445938,wydm8s
113000476.0,웨딩타운(중),37.5570333,126.9511667,wydm8v
113000476.0,웨딩타운,37.557007,126.950828,wydm8v
113000476.0,웨딩타운,37.557092,126.951517,wydm8v
113000477.0,아현역(중),37.5573,126.95495,wydm8v
113000477.0,아현역,37.557181,126.954455,wydm8v
113000477.0,아현역,37.5572984,126.9547468,wydm8v
112000430.0,충정로역(중),37.5611,126.9634833,wydm9j
112000430.0,충정로역,37.5610582,126.9634916,wydm9j
101000304.0,서대문역사거리(중),37.5655,126.9664833,wydm9n
101000304.0,서대문역사거리,37.565579,126.966565,wydm9n
100000380.0,서울역사박물관.경희궁앞(중),37.5690667,126.9703167,wydm9r
100000380.0,서울역사박물관.경희궁앞,37.569135,126.97038,wydm9r
100000384.0,광화문(중),37.5701333,126.97625,wydm9r
100000384.0,광화문,37.5701354,126.9752507,wydm9r
100000386.0,종로1가(중),37.5701333,126.9809,wydm9x
100000386.0,종로1가,37.5701482,126.981066,wydm9x
100000388.0,종로2가(중),37.5701167,126.9855333,wydm9x
100000388.0,종로2가,37.5701386,126.9855426,wydm9x
100000390.0,종로3가.탑골공원(중),37.5702333,126.9895667,wydm9x
100000390.0,종로3가.탑골공원,37.5702449,126.9895646,wydm9x
100000392.0,종로4가.종묘(중),37.5705,126.9947167,wydm9z
100000392.0,종로4가.종묘,37.5705069,126.9947218,wydm9z
100000394.0,종로5가.광장시장(중),37.57075,126.99885,wydm9z
100000394.0,종로5가.광장시장,37.5707567,126.9988498,wydm9z
100000396.0,종로6가.동대문종합시장(중),37.5709833,127.00345,wydmdp
100000396.0,종로6가.동대문종합시장,37.5709624,127.0034638,wydmdp
100000398.0,동대문역.흥인지문(중),37.5723167,127.01345,wydmdr
100000398.0,동대문역.흥인지문,37.5723023,127.0134512,wydmdr
100000366.0,동묘앞(중),37.5737667,127.0185667,wydmf2
100000366.0,동묘앞,37.5737786,127.0184085,wydmf2
105000486.0,신설동역(중),37.5761,127.0249167,wydmf8
105000486.0,신설동역,37.57615,127.0250446,wydmf8
105000484.0,용두동사거리(중),37.5775167,127.0299167,wydmf8
105000484.0,용두동사거리,37.577532,127.0299882,wydmf8
105000016.0,청량리역환승센터(1번승강장),37.5803333,127.0460167,wydmg1
105000016.0,청량리역환승센타,37.5802508,127.0460771,wydmg1
105000033.0,휘경동입구,37.58765,127.0552167,wydmg4
105000033.0,휘경동입구,37.5876921,127.0550614,wydmg4
105000012.0,삼육서울병원(중),37.5899833,127.0620333,wydmg7
105000012.0,삼육서울병원,37.5899572,127.0620677,wydmg7
105000010.0,중랑교(중),37.5914167,127.0669,wydmg7
105000010.0,중랑교,37.5913657,127.0669234,wydmg7
106000006.0,중랑역.동부시장(중),37.5936167,127.0751,wydmge
106000006.0,중랑역.동부시장,37.5935865,127.075097,wydmge
106000004.0,상봉역.중랑우체국(중),37.5956167,127.0828833,wydmgu
106000004.0,상봉역.중랑우체국,37.5956652,127.0828597,wydmgu
106000002.0,망우역.상봉터미널(중),37.5975167,127.09035,wydmuh
106000002.0,망우역.상봉터미널,37.5975072,127.0903499,wydmuh
106000435.0,망우역.망우지구대(중),37.59855,127.09485,wydmuh
106000435.0,망우역.망우지구대,37.598558,127.094871,wydmuh
106000432.0,우림시장.망우사거리(중),37.5992333,127.0979167,wydmuh
106000432.0,우림시장.망우사거리,37.5992996,127.0979162,wydmuh
106000430.0,금란교회(중),37.6003167,127.1032,wydmuk
106000430.0,금란교회,37.600364,127.1033574,wydmuk
106000429.0,동부제일병원.망우리공원(중),37.6004333,127.10765,wydmuk
106000429.0,동부제일병원.망우리공원,37.600478,127.107756,wydmuk
106000324.0,해모로아파트앞,37.6018793,127.1114253,wydmum
106000320.0,서울특별시북부병원,37.605022,127.108843,wydmum
106000321.0,양원역,37.6062415,127.1075242,wydmuq
106000235.0,양원역입구,37.6055398,127.1061947,wydmum
106000233.0,경남아파트,37.603826,127.107113,wydmum
106000231.0,망우금호어울림아파트,37.6020564,127.1080482,wydmum
106000049.0,망우동고개,37.6007,127.10735,wydmuk
106000049.0,망우동고개,37.6006722,127.1071447,wydmuk
106000431.0,금란교회,37.6005,127.1039333,wydmuk
106000431.0,금란교회,37.6005297,127.1040333,wydmuk
106000433.0,우림시장.망우사거리(중),37.5995333,127.09875,wydmuh
106000433.0,우림시장.망우사거리,37.599629,127.0990535,wydmuh
106000434.0,망우역.망우지구대,37.5988667,127.0956,wydmuh
106000434.0,망우역.망우지구대,37.5988214,127.0955656,wydmuh
106000001.0,망우역.상봉터미널(중),37.5978333,127.0911167,wydmuh
106000001.0,망우역.상봉터미널,37.5978283,127.0911385,wydmuh
106000003.0,상봉역.중랑우체국(중),37.59595,127.08375,wydmgu
106000003.0,상봉역.중랑우체국,37.595959,127.0837435,wydmgu
106000005.0,중랑역.동부시장(중),37.5940167,127.0761333,wydmge
106000005.0,중랑역.동부시장,37.5939832,127.0761664,wydmge
105000009.0,중랑교(중),37.5917333,127.0676833,wydmg7
105000009.0,중랑교,37.5916996,127.0677039,wydmg7
105000011.0,삼육서울병원(중),37.5897,127.0606667,wydmg6
105000011.0,삼육서울병원,37.5896516,127.0606916,wydmg6
105000013.0,시조사삼거리(중),37.5886333,127.0570167,wydmg6
105000013.0,시조사삼거리,37.588707,127.056888,wydmg6
105000478.0,청량리미주아파트.동대문세무서(중),37.5828,127.0484333,wydmg1
105000478.0,청량리미주아파트.동대문세무서,37.58278,127.048395,wydmg1
105000015.0,청량리역환승센터(4번승강장),37.5804333,127.0454167,wydmfc
105000015.0,청량리역환승센타,37.5804025,127.0454307,wydmfc
105000480.0,청량리.청과물도매시장(중),37.5788,127.0406167,wydmfc
105000480.0,청량리.청과물도매시장,37.5787822,127.0407118,wydmfc
105000481.0,제기동역.서울약령시장(중),37.5782167,127.0353833,wydmfb
105000481.0,제기동역.서울약령시,37.5781955,127.0353335,wydmfb
105000483.0,용두동사거리.한국의류시험연구원(중),37.5771833,127.0283167,wydmf8
105000483.0,용두동사거리.한국의류시험연구원,37.5771458,127.0283882,wydmf8
105000485.0,신설동역(중),37.5759,127.0238833,wydmf2
105000485.0,신설동역,37.5758267,127.0238433,wydmf2
100000367.0,동묘앞(중),37.5742167,127.0195333,wydmf2
100000367.0,동묘앞,37.5742434,127.019672,wydmf2
100000365.0,동대문.흥인지문(중),37.5721,127.0124833,wydmdp
100000365.0,동대문(흥인지문),37.5719529,127.0120461,wydmdp
100000397.0,종로6가.동대문종합시장(중),37.5711667,127.0057,wydmdp
100000397.0,종로6가.동대문종합시장,37.5711272,127.0057137,wydmdp
100000395.0,종로5가.광장시장(중),37.5709167,126.9993167,wydm9z
100000395.0,종로5가.광장시장,37.5708806,126.9993346,wydm9z
100000393.0,종로4가.종묘(중),37.5706667,126.9952833,wydm9z
100000393.0,종로4가.종묘,37.5706271,126.9952838,wydm9z
100000391.0,종로3가.탑골공원(중),37.5703667,126.9899833,wydm9x
100000391.0,종로3가.탑골공원,37.5703605,126.9899877,wydm9x
100000389.0,종로2가,37.57025,126.9862333,wydm9x
100000389.0,종로2가,37.5702571,126.9862474,wydm9x
100000387.0,종로1가(중),37.57025,126.9813833,wydm9x
100000387.0,종로1가,37.570229,126.9813906,wydm9x
100000385.0,광화문(중),37.57025,126.9777667,wydm9r
100000385.0,광화문,37.5702168,126.9780854,wydm9r
100000379.0,서울역사박물관.경희궁앞,37.569412,126.970609,wydm9r
101000305.0,서대문역사거리(중),37.5661833,126.9668833,wydm9n
101000305.0,서대문역사거리,37.566137,126.966893,wydm9n
112000429.0,충정로역(중),37.56005,126.9627,wydm9j
112000429.0,충정로역,37.5600226,126.9626986,wydm9j
113000478.0,아현역(중),37.5574167,126.95675,wydm8v
113000478.0,아현역,37.557525,126.957086,wydm8v
113000478.0,아현역,37.557425,126.956593,wydm8v
113000475.0,웨딩타운(중),37.55725,126.95265,wydm8v
113000475.0,웨딩타운,37.557278,126.95267,wydm8v
113000475.0,웨딩타운,37.557227,126.952408,wydm8v
113000411.0,이대역(중),37.5568833,126.9472,wydm8v
113000411.0,이대역,37.556935,126.947109,wydm8v
113000411.0,이대역,37.5568755,126.9472705,wydm8v
113000417.0,신촌오거리.2호선신촌역(중),37.5557,126.9386333,wydm8s
113000417.0,신촌오거리.2호선신촌역,37.555732,126.938536,wydm8s
113000417.0,신촌오거리.2호선신촌역,37.5557884,126.9389815,wydm8s
113000416.0,신촌오거리.현대백화점(중),37.556,126.9344667,wydm8k
113000416.0,신촌오거리.현대백화점,37.556002,126.934711,wydm8k
113000416.0,신촌오거리.현대백화점,37.5559833,126.9345037,wydm8k
113000415.0,동교동삼거리(중),37.5578167,126.9294,wydm8m
113000415.0,동교동삼거리,37.557796,126.929638,wydm8m
113000415.0,동교동삼거리,37.5577646,126.9295196,wydm8m
112000064.0,연희동대우아파트,37.56265,126.9279333,wydm8q
112000064.0,연희동대우아파트,37.5626233,126.9279552,wydm8q
112000028.0,연희104고지앞.구성산회관,37.5665333,126.9249833,wydm8n
112000028.0,연희104고지앞.구성산회관,37.56655,126.924998,wydm8n
112000026.0,사천교,37.5680833,126.9175667,wydm8p
112000026.0,사천교,37.568082,126.9175934,wydm8p
112000006.0,모래내시장.가좌역(중),37.56985,126.9138167,wydjxz
112000006.0,모래내시장.가좌역,37.569862,126.913786,wydjxz
112000004.0,DMC래미안e.편한세상요진아파트(중),37.5715167,126.9102667,wydjxz
112000004.0,DMC래미안e.편한세상요진아파트,37.571577,126.910313,wydjxz
112000002.0,북가좌동삼거리(중),37.57515,126.9051,wydjzb
112000002.0,북가좌동삼거리,37.575143,126.905143,wydjzb
111000008.0,디지털미디어시티역(중),37.5785333,126.9013667,wydjz8
111000008.0,디지털미디어시티역,37.5785084,126.9014362,wydjz8
111000006.0,수색역앞(중),37.583,126.89405,wydjz9
111000006.0,수색역앞,37.583047,126.894103,wydjz9
111000004.0,수색교(중),37.5854,126.8892,wydjz6
111000004.0,수색교,37.5848769,126.8898192,wydjz6
113000022.0,DMC첨단산업센터,37.5855167,126.8848,wydjz6
113000022.0,DMC첨단산업센터,37.585598,126.884787,wydjz6
113000181.0,월드컵파크7단지,37.5819667,126.8791833,wydjz1
113000181.0,월드컵파크7단지,37.581876,126.878963,wydjz1
106000101.0,용마문화복지센터,37.5863676,127.0953481,wydmu4
106000100.0,서일대학교,37.5890787,127.0968044,wydmu4
106000097.0,명일초등학교,37.5918167,127.09825,wydmu5
106000097.0,면일초등학교,37.5917862,127.0982687,wydmu5
106000095.0,용마공원입구,37.5938167,127.09935,wydmu5
106000095.0,용마공원입구,37.5937857,127.0993607,wydmu5
106000071.0,우림시장,37.5955034,127.099149,wydmuh
106000069.0,봉우재고개,37.595112,127.0973048,wydmu5
106000067.0,혜원여중고입구,37.5946838,127.0953565,wydmu5
106000065.0,상봉터미널입구,37.5942915,127.093501,wydmu5
106000063.0,상봉신협,37.5936531,127.0905684,wydmu5
106000061.0,면목6거리,37.5929402,127.0872031,wydmgg
106000059.0,서울창업카페상봉점,37.59224,127.083713,wydmgg
106000057.0,금성시장,37.591663,127.0812995,wydmgg
106000055.0,동부시장남문입구,37.5907703,127.0782592,wydmge
106000053.0,중랑초등학교,37.5894897,127.0743863,wydmgd
106000051.0,서울우유앞,37.5914485,127.0731675,wydmge
113000506.0,홍대입구역(가상),37.558628,126.926058,wydm8m
113000414.0,홍대입구역(중),37.5573833,126.9244,wydm8j
113000414.0,홍대입구역,37.557511,126.924573,wydm8j
113000414.0,홍대입구역,37.5574769,126.9245894,wydm8j
113000413.0,서교동(중),37.5541833,126.9201,wydm8h
113000413.0,서교동,37.554383,126.920288,wydm8h
113000413.0,서교동,37.554249,126.9202362,wydm8h
113000128.0,합정역,37.5511333,126.9157167,wydm85
113000128.0,합정역,37.5510604,126.9156095,wydm85
113000153.0,메세나폴리스,37.5508,126.91295,wydjxg
113000153.0,메세나폴리스,37.5507674,126.9129433,wydjxg
113000156.0,성산초등학교입구,37.5532,126.9122833,wydjxu
113000156.0,성산초등학교입구,37.553218,126.912262,wydjxu
113000157.0,기업은행서교동지점(최규하대통령가옥),37.5548333,126.9114667,wydjxu
113000157.0,기업은행서교동지점(최규하대통령가옥),37.5547915,126.9114638,wydjxu
113000160.0,망원시장.망원동월드컵시장입구,37.5576167,126.90895,wydjxv
113000160.0,망원시장.망원동월드컵시장입구,37.5575911,126.9089432,wydjxv
113000161.0,마포구청역입구,37.5604167,126.9062667,wydjxv
113000161.0,마포구청역입구,37.5604275,126.9063646,wydjxv
113000011.0,마포구청.성산자동차검사소,37.5649,126.9023,wydjxw
113000011.0,마포구청.성산자동차검사소,37.5649538,126.9024231,wydjxw
113000014.0,월드컵경기장남측.월드컵공원,37.56675,126.8961833,wydjxw
113000014.0,월드컵경기장남측.월드컵공원,37.5667212,126.8961844,wydjxw
113000025.0,월드컵공원입구.문화비축기지입구,37.5684833,126.8927,wydjxx
113000025.0,월드컵공원입구.문화비축기지입구,37.568523,126.892748,wydjxx
113000198.0,월드컵파크3단지후문,37.5712167,126.8897,wydjxr
113000198.0,월드컵파크3단지후문,37.571242,126.889762,wydjxr
113000026.0,월드컵파크3단지정문,37.5736,126.88895,wydjz2
113000026.0,월드컵파크3단지정문,37.573822,126.889228,wydjz2
113000027.0,월드컵파크2단지.에스플렉스센터,37.5752667,126.8906333,wydjz2
113000027.0,월드컵파크2단지.에스플렉스센터,37.575267,126.890647,wydjz2
113000192.0,상암DMC홍보관.YTN,37.5779833,126.8913167,wydjz2
113000192.0,상암DMC홍보관.YTN,37.577985,126.891323,wydjz2
113000204.0,누리꿈스퀘어.MBC,37.5789833,126.8896333,wydjz3
113000204.0,누리꿈스퀘어.MBC,37.578988,126.889637,wydjz3
113000194.0,월드컵파크5단지.상암중고등학교입구,37.58105,126.88615,wydjz3
113000194.0,월드컵파크5단지.상암중고등학교입구,37.580921,126.886335,wydjz3
113000432.0,월드컵파크9.10.11.12단지,37.5843667,126.87995,wydjz4
113000432.0,월드컵파크9.10.11.12단지,37.5844275,126.8798243,wydjz4
113000197.0,상암고등학교,37.5818167,126.88405,wydjz3
113000197.0,상암고등학교,37.5817798,126.8840462,wydjz3
113000195.0,월드컵파크5단지,37.5803667,126.8865167,wydjz3
113000195.0,월드컵파크5단지,37.5803332,126.8865178,wydjz3
113000193.0,상암DMC홍보관.YTN,37.5775333,126.8913,wydjz2
113000193.0,상암DMC홍보관.YTN,37.5774605,126.8912875,wydjz2
113000028.0,월드컵파크2단지.에스플렉스센터,37.5753667,126.8902833,wydjz2
113000028.0,월드컵파크2단지.에스플렉스센터,37.5753384,126.8902909,wydjz2
113000018.0,월드컵파크3단지.난지천공원,37.5725833,126.8881667,wydjxr
113000018.0,월드컵파크3단지.난지천공원,37.5725268,126.8881293,wydjxr
113000410.0,월드컵공원입구.문화비축기지입구,37.5681,126.8925667,wydjxx
113000410.0,월드컵공원입구.문화비축기지입구,37.568177,126.892749,wydjxx
113000013.0,마포농수산물시장.월드컵공원,37.5660667,126.8974,wydjxw
113000013.0,마포농수산물시장.월드컵공원,37.5661423,126.8967727,wydjxw
113000012.0,마포구청,37.5649333,126.9018,wydjxw
113000012.0,마포구청,37.5649023,126.9018904,wydjxw
113000162.0,마포구청역입구,37.5606167,126.9057167,wydjxv
113000162.0,마포구청역입구,37.5605946,126.9057249,wydjxv
113000159.0,망원시장.망원동월드컵시장입구,37.55755,126.9084833,wydjxv
113000159.0,망원시장.망원동월드컵시장입구,37.5575205,126.9085177,wydjxv
113000158.0,기업은행서교동지점(최규하대통령가옥),37.5549,126.9109,wydjxu
113000158.0,기업은행서교동지점(최규하대통령가옥),37.5548695,126.9108956,wydjxu
113000155.0,성산초등학교입구,37.5531667,126.91185,wydjxu
113000155.0,성산초등학교입구,37.5531302,126.9118676,wydjxu
113000154.0,마포한강푸르지오,37.5507833,126.9125667,wydjxg
113000154.0,마포한강푸르지오,37.550787,126.912592,wydjxg
113000129.0,합정역,37.5501833,126.9151333,wydm85
113000129.0,합정역,37.550023,126.914946,wydm85
113000129.0,합정역,37.5502177,126.9153071,wydm85
113000423.0,서교동(중),37.55365,126.9195333,wydm8h
113000423.0,서교동,37.553533,126.919467,wydm8h
113000423.0,서교동,37.5536367,126.9195815,wydm8h
113000505.0,홍대입구역(가상),37.555314,126.921733,wydm8h
113000422.0,홍대입구역(중),37.5565833,126.9234833,wydm8h
113000422.0,홍대입구역,37.556724,126.923743,wydm8h
113000422.0,홍대입구역,37.5563734,126.9231959,wydm8h
105000446.0,청량리역환승센터(3번승강장),37.5805,127.0458,wydmfc
105000446.0,청량리역환승센터,37.580406,127.0457024,wydmfc
106000050.0,서울우유앞,37.592108,127.072817,wydmge
106000052.0,중랑초등학교,37.58932,127.074318,wydmgd
106000054.0,동부시장남문입구,37.5903014,127.0774174,wydmge
106000056.0,88병원,37.5913119,127.080896,wydmgg
106000058.0,서울창업카페상봉점,37.592028,127.083885,wydmgg
106000060.0,면목6거리,37.5928667,127.0877333,wydmgg
106000060.0,면목6거리,37.5928074,127.0876774,wydmgg
106000062.0,상봉신협,37.5933652,127.0899024,wydmu5
106000064.0,상봉터미널입구,37.59388,127.092532,wydmu5
106000066.0,혜원여중고입구,37.594427,127.09505,wydmu5
106000068.0,봉우재고개,37.595025,127.097837,wydmu5
106000070.0,우림시장,37.595398,127.09954,wydmuh
106000096.0,용마공원입구,37.59435,127.0993333,wydmu5
106000096.0,용마공원입구,37.594253,127.099292,wydmu5
106000098.0,우리은행망우동지점,37.5913333,127.0976833,wydmu5
106000098.0,우리은행망우동지점,37.591217,127.097627,wydmu5
106000099.0,서일대학교,37.58951,127.0967,wydmu4
106000102.0,용마문화복지센터,37.586712,127.095167,wydmu4
117000084.0,석수역,37.4355241,126.9033111,wydhzy
117000083.0,시흥3동주민센터앞,37.440167,126.9036271,wydhzz
117000081.0,박미마을,37.4431667,126.9039833,wydjpb
117000081.0,박미마을.금천고등학교,37.443212,126.9039638,wydjpb
117000079.0,금천폭포공원.천주교시흥성당,37.4477667,126.9035167,wydjpc
117000079.0,금천폭포공원.천주교시흥성당,37.4477127,126.903517,wydjpc
117000086.0,백산초등학교,37.4486667,126.9042333,wydjpc
117000086.0,백산초등학교,37.4486234,126.904229,wydjpc
117000088.0,은행나무입구사거리,37.4513833,126.9060667,wydjpc
117000088.0,은행나무입구사거리,37.4513327,126.9060589,wydjpc
117000089.0,(구)태풍약국,37.4536667,126.9062667,wydjpf
117000089.0,경남아파트,37.4536154,126.9062606,wydjpf
117000091.0,시흥초등학교,37.4554,126.90595,wydjpf
117000091.0,시흥초등학교.금천구보훈회관,37.4553525,126.9059442,wydjpf
117000093.0,동산교회앞,37.4570667,126.9056167,wydjpf
117000093.0,동산교회앞,37.4570265,126.9056143,wydjpf
117000095.0,현대시장.시흥4동주민센터,37.4592833,126.9051667,wydjpg
117000095.0,현대시장.시흥4동주민센터,37.4592401,126.9051695,wydjpg
117000097.0,남부여성발전센타,37.4625,126.90435,wydjpg
117000097.0,남부여성발전센터,37.4624573,126.9043527,wydjpg
117000099.0,독산동정훈단지,37.4645,126.903,wydjps
117000099.0,독산동정훈단지,37.4644522,126.903006,wydjps
117000102.0,독산4동주민센터,37.4673833,126.9019833,wydjps
117000102.0,독산4동주민센터,37.4673457,126.9019814,wydjps
117000104.0,독산동성당앞,37.46975,126.90275,wydjpt
117000104.0,독산동성당앞,37.4697072,126.9027437,wydjpt
117000106.0,독산동쌈지공원,37.4712167,126.9031833,wydjpv
117000106.0,독산동쌈지공원,37.4711737,126.9031805,wydjpv
117000141.0,독산동남문시장,37.4734,126.9034167,wydjpv
117000141.0,독산동남문시장,37.4733474,126.9034139,wydjpv
117000108.0,독산3동주민센터,37.4758667,126.90365,wydjpy
117000108.0,독산3동주민센터,37.4758229,126.9036414,wydjpy
117000110.0,모두의학교.금천문화예술정보학교,37.4787,126.9039333,wydjpy
117000110.0,모두의학교.금천문화예술정보학교,37.4786589,126.9039351,wydjpy
120000001.0,구로디지털단지역(중),37.4841333,126.9025333,wydjpx
120000001.0,구로디지털단지역,37.4839345,126.9024471,wydjpx
119000001.0,동작상떼빌아파트(중),37.4864167,126.9044167,wydjrb
119000001.0,동작상떼빌아파트,37.486449,126.904448,wydjrb
118000175.0,대림동우체국,37.4894833,126.90545,wydjrb
118000175.0,대림동우체국,37.4894382,126.9054525,wydjrb
118000176.0,흰돌교회,37.49135,126.9029,wydjr9
118000176.0,흰돌교회,37.4909422,126.9032194,wydjrc
118000177.0,대동초등학교,37.4940333,126.9007333,wydjr9
118000177.0,대동초등학교,37.4939967,126.9007387,wydjr9
118000206.0,대림3동주민센터,37.4976454,126.8988667,wydjrd
118000239.0,국민은행,37.500805,126.898722,wydjrd
118000531.0,신길건영아파트,37.503563,126.9020517,wydjre
118000492.0,대영고등학교.신길센트럴아이파크,37.5048502,126.90482,wydjrg
118000535.0,신풍시장,37.5057447,126.9101667,wydjrg
118000595.0,신길가마산로교차로,37.5065149,126.9111162,wydjrg
118000153.0,우신초등학교,37.5093,126.9109333,wydjru
118000153.0,우신초등학교,37.5092523,126.9109396,wydjru
118000155.0,영등포농협.신길2동새마을금고,37.5109333,126.9122333,wydjru
118000155.0,신길동홍어거리,37.5107942,126.9115715,wydjru
118000143.0,대신시장,37.5117667,126.9164667,wydm2h
118000143.0,대신시장,37.5117299,126.9164648,wydm2h
118000141.0,신길새마을금고,37.5136333,126.9202167,wydm2j
118000141.0,신길새마을금고,37.5136409,126.9200351,wydm2j
118000015.0,대방역(중),37.5126333,126.9247667,wydm2h
118000015.0,대방역,37.5126573,126.9248245,wydm2h
119000007.0,현대아파트(중),37.5131333,126.9313833,wydm2m
119000007.0,현대아파트,37.513174,126.931437,wydm2m
119000009.0,노량진수산시장.CTS기독교TV(중),37.5134167,126.93845,wydm2t
119000009.0,노량진수산시장.CTS기독교TV,37.513423,126.938456,wydm2t
119000011.0,노량진역(중),37.5137333,126.9438,wydm2t
119000011.0,노량진역,37.513733,126.943811,wydm2t
119000013.0,노들역(중),37.5128333,126.94925,wydm2v
119000013.0,노들역,37.512825,126.949256,wydm2v
102000248.0,노들섬,37.5180667,126.9595167,wydm3j
102000248.0,노들섬,37.5173638,126.9590376,wydm3j
102000001.0,한강대교북단.LG유플러스(중),37.5241333,126.9631833,wydm3p
102000001.0,한강대교북단.LG유플러스,37.5240898,126.9631917,wydm3p
102000003.0,신용산역(중),37.5272833,126.9662,wydm3p
102000003.0,신용산역,37.527293,126.966207,wydm3p
102000005.0,KT용산지사(중),37.5315333,126.9702333,wydm92
102000005.0,용산우체국,37.531497,126.970235,wydm92
102000007.0,삼각지역(중),37.5353,126.974,wydm93
102000007.0,삼각지역,37.5352698,126.9740117,wydm93
102000009.0,숙대입구역(중),37.5433333,126.9725333,wydm96
102000009.0,숙대입구역,37.5432956,126.9725377,wydm96
102000011.0,갈월동(중),37.5510167,126.9722333,wydm97
102000011.0,갈월동,37.5509755,126.9722373,wydm97
101000263.0,서울스퀘어앞,37.5553833,126.9732667,wydm9k
101000263.0,서울스퀘어앞,37.5553416,126.9732317,wydm9k
101000047.0,남대문시장.회현역,37.5578167,126.9777167,wydm9m
101000047.0,남대문시장.회현역,37.558492,126.9784645,wydm9m
101000050.0,명동입구,37.5606538,126.9852407,wydm9t
101000053.0,퇴계로3가.한옥마을.한국의집,37.5609706,126.9921714,wydm9v
101000054.0,충무로역2번출구.대한극장앞,37.5612232,126.9949175,wydm9v
101000103.0,퇴계로5가,37.5623804,126.999966,wydm9y
101000101.0,퇴계로6가,37.5634011,127.0039011,wydmdn
101000072.0,광희동,37.5649951,127.0079579,wydmdn
101000130.0,동대문역사문화공원,37.5654833,127.0091167,wydmdn
101000130.0,동대문역사문화공원,37.5654113,127.0091092,wydmdn
101000165.0,광희문.광희동사거리,37.5645499,127.008611,wydmdn
101000102.0,퇴계로6가,37.5635738,127.0033399,wydmdn
101000104.0,퇴계로5가,37.5627804,126.9997252,wydm9y
101000055.0,충무로역8번출구.대한극장앞,37.5620371,126.9964921,wydm9v
101000052.0,퇴계로3가.한옥마을.한국의집,37.5612508,126.9917771,wydm9v
101000051.0,퇴계로2가.명동역,37.5608934,126.9844913,wydm9t
101000032.0,북창동.남대문시장,37.5612,126.9781833,wydm9m
101000032.0,북창동.남대문시장,37.561175,126.97792,wydm9m
101000329.0,숭례문(경유),37.5598,126.9744667,wydm9m
101000008.0,숭례문(중),37.5584667,126.9736833,wydm9m
101000008.0,숭례문,37.5586388,126.9737783,wydm9m
101000004.0,서울역버스환승센터,37.5555167,126.9725,wydm9k
101000004.0,서울역버스환승센터,37.5554462,126.9723557,wydm9k
102000012.0,갈월동(중),37.5495667,126.9717,wydm97
102000012.0,갈월동,37.5495337,126.9717081,wydm97
102000010.0,숙대입구역(중),37.5438,126.9722333,wydm96
102000010.0,숙대입구역,37.543756,126.972232,wydm96
102000008.0,삼각지역(중),37.5360167,126.97415,wydm93
102000008.0,삼각지역,37.5359845,126.9741608,wydm93
102000006.0,KT용산지사(중),37.5320833,126.9705667,wydm92
102000006.0,용산우체국,37.5320503,126.970564,wydm92
102000004.0,신용산역(중),37.5279667,126.9666167,wydm3p
102000004.0,신용산역,37.5279204,126.9666192,wydm3p
102000002.0,한강대교북단.LG유플러스(중),37.52435,126.9631833,wydm3p
102000002.0,한강대교북단.LG유플러스,37.524306,126.9631848,wydm3p
102000247.0,노들섬,37.51815,126.9589667,wydm3j
102000247.0,노들섬,37.5176712,126.9585926,wydm3j
119000014.0,노들역(중),37.5127667,126.9509667,wydm2u
119000014.0,노들역,37.5127342,126.9509621,wydm2u
119000012.0,노량진역(중),37.5138667,126.9447167,wydm2t
119000012.0,노량진역,37.5138325,126.9447114,wydm2t
119000010.0,노량진수산시장.CTS기독교TV(중),37.5135167,126.9388667,wydm2t
119000010.0,노량진수산시장.CTS기독교TV,37.51348,126.9388655,wydm2t
119000008.0,현대아파트.유한양행(중),37.51325,126.9323333,wydm2m
119000008.0,현대아파트.유한양행,37.5132368,126.9323737,wydm2m
118000169.0,대방역,37.5130048,126.9242224,wydm2j
118000145.0,대신시장,37.5120833,126.9162,wydm2h
118000145.0,대신시장,37.5120379,126.9161953,wydm2h
118000146.0,영등포농협.신길2동새마을금고,37.5114667,126.9134333,wydjru
118000146.0,영등포농협.신길2동새마을금고,37.5114267,126.9134268,wydjru
118000147.0,우신초등학교,37.50935,126.9106,wydjru
118000147.0,우신초등학교,37.5093088,126.9106002,wydjru
118000209.0,사러가쇼핑센타,37.50655,126.9109167,wydjrg
118000209.0,신길가마산로교차로,37.5065337,126.9108716,wydjrg
118000298.0,코끼리유통,37.5059175,126.9068252,wydjrg
118000299.0,성락교회,37.504783,126.904153,wydjrg
118000532.0,신길건영아파트,37.5039003,126.9019651,wydjre
118000534.0,수정교회,37.500826,126.8984473,wydjrd
118000533.0,대림3동주민센터,37.4981672,126.89831,wydjrd
118000181.0,대동초등학교,37.4937,126.9006667,wydjr9
118000181.0,대동초등학교,37.4936614,126.9006611,wydjr9
118000182.0,흰돌교회,37.4906167,126.9032833,wydjrb
118000182.0,흰돌교회,37.490543,126.9032572,wydjrb
118000183.0,대림동우체국,37.4897,126.90475,wydjrb
118000183.0,대림동우체국,37.4896278,126.9047297,wydjrb
118000009.0,서울영림초등학교(중),37.4871333,126.9049,wydjrb
118000009.0,서울영림초등학교,37.4870299,126.9046945,wydjrb
116000013.0,구로디지털단지역(중),37.4830667,126.90155,wydjpx
116000013.0,구로디지털단지역,37.4830994,126.9015481,wydjpx
117000109.0,모두의학교.금천문화예술정보학교,37.4788833,126.9037,wydjpy
117000109.0,모두의학교.금천문화예술정보학교,37.4788389,126.9036963,wydjpy
117000107.0,독산3동주민센터,37.4753667,126.90335,wydjpy
117000107.0,독산3동주민센터,37.475327,126.9033549,wydjpy
117000140.0,독산동남문시장,37.47355,126.9031667,wydjpv
117000140.0,독산동남문시장,37.473513,126.9031707,wydjpv
117000105.0,독산동쌈지공원,37.4713167,126.90295,wydjpt
117000105.0,독산동쌈지공원,37.4712654,126.9029463,wydjpt
117000103.0,독산동성당앞,37.4689667,126.9022333,wydjpt
117000103.0,독산동성당앞,37.4689156,126.9022258,wydjpt
117000098.0,독산동정훈단지,37.4654833,126.9020667,wydjps
117000098.0,독산동정훈단지,37.4654381,126.9020698,wydjps
117000096.0,남부여성발전센타,37.46235,126.90415,wydjpg
117000096.0,남부여성발전센터,37.4623022,126.9041539,wydjpg
117000094.0,현대시장.시흥4동주민센터,37.45965,126.9048333,wydjpg
117000094.0,현대시장.시흥4동주민센터,37.4596021,126.9048243,wydjpg
117000092.0,동산교회앞,37.4574,126.9052833,wydjpf
117000092.0,동산교회앞,37.457347,126.9052838,wydjpf
117000090.0,시흥초등학교,37.4546,126.9058667,wydjpf
117000090.0,시흥초등학교.금천구보훈회관,37.4545675,126.9058231,wydjpf
117000087.0,은행나무입구사거리,37.4511333,126.9058167,wydjpc
117000087.0,은행나무입구사거리,37.4511117,126.9057879,wydjpc
117000085.0,백산초등학교,37.4488167,126.9039833,wydjpc
117000085.0,백산초등학교,37.4487629,126.9039779,wydjpc
117000078.0,남서울힐스테이트.국립전통예술고,37.4467667,126.9032833,wydjpb
117000078.0,남서울힐스테이트.국립전통예술고,37.4467258,126.903282,wydjpb
117000080.0,박미마을,37.4415002,126.903178,wydjpb
117000082.0,기아대교,37.4394878,126.9029828,wydhzx
115000321.0,개화역광역환승센터,37.5782167,126.7981667,wydjv2
115000321.0,개화역광역환승센터,37.57822,126.797978,wydjv2
115000073.0,개화역1번출구.개화검문소,37.57855,126.7998333,wydjv2
115000073.0,개화검문소,37.578416,126.799976,wydjv2
115000073.0,개화역1번출구.개화검문소,37.5784942,126.7997884,wydjv2
115000071.0,개화119안전센터,37.5750667,126.8022167,wydjv2
115000071.0,개화2치안센터,37.575104,126.802196,wydjv2
115000071.0,개화119안전센터,37.575128,126.802225,wydjv2
115000282.0,김포공항국제선(4번홈),37.5652167,126.8012833,wydjtq
115000282.0,김포공항국제선,37.56531,126.801112,wydjtq
115000297.0,한국공항공사,37.5625333,126.7989333,wydjtq
115000297.0,한국공항공사,37.562496,126.798807,wydjtq
115000297.0,한국공항공사,37.562433,126.798872,wydjtq
115000280.0,김포공항국내선(6번홈),37.5588667,126.8040667,wydjtm
115000280.0,김포공항국내선,37.5588334,126.8041241,wydjtm
115000634.0,송정역(중),37.5614333,126.8095833,wydjtt
115000634.0,송정역,37.561455,126.809614,wydjtt
115000634.0,송정역,37.5613708,126.8095961,wydjtt
115000635.0,공항중학교.마곡엠밸리9.10단지(중),37.5607667,126.8157,wydjtv
115000635.0,공항중학교.마곡엠밸리9 10단지,37.5607246,126.8158007,wydjtv
115000947.0,강서세무서(중),37.5601833,126.8212667,wydjtv
115000947.0,강서세무서,37.5602555,126.8212942,wydjtv
115000896.0,마곡역(중),37.5596833,126.8260333,wydjtv
115000896.0,마곡역,37.5597895,126.8260719,wydjtv
115000922.0,마곡동로사거리(중),37.5591333,126.8316667,wydjwj
115000922.0,마곡동로사거리,37.5592024,126.8318218,wydjwj
115000893.0,발산역(중),37.55855,126.8376,wydjwm
115000893.0,발산역,37.5585733,126.8376109,wydjwm
115000593.0,한국가스기술공사(중),37.5579833,126.84315,wydjwm
115000593.0,한국가스기술공사,37.557872,126.843257,wydjwm
115000591.0,KBS스포츠월드(중),37.5569,126.8492167,wydjwt
115000591.0,KBS스포츠월드,37.5569118,126.8492332,wydjwt
115000589.0,강서구청사거리.서울디지털대학교(중),37.5549833,126.8547667,wydjws
115000589.0,강서구청사거리.서울디지털대학교,37.5552355,126.8540843,wydjws
115000006.0,등촌중학교.백석초등학교(중),37.5529,126.8605333,wydjwu
115000006.0,등촌중학교.백석초등학교,37.5528653,126.8605244,wydjwu
115000004.0,등촌역.강서보건소(중),37.54945,126.8676,wydjwg
115000004.0,등촌역.강서보건소,37.5494106,126.8675998,wydjwg
115000002.0,염창역.서울도시가스(중),37.5469,126.8750167,wydjx5
115000002.0,염창역.서울도시가스,37.5469638,126.8750052,wydjx5
118000132.0,안양천입구,37.5469333,126.8844,wydjx7
118000132.0,안양천입구,37.5473061,126.8836668,wydjx7
113000104.0,마포구청역,37.5622833,126.9022333,wydjxw
113000104.0,마포구청역,37.5622453,126.9022262,wydjxt
113000105.0,마포중앙도서관,37.5637167,126.9067333,wydjxy
113000105.0,마포중앙도서관,37.5636762,126.9067285,wydjxy
113000107.0,성산2교,37.5655333,126.9132333,wydjxy
113000107.0,성산2교,37.5654951,126.9132318,wydjxy
112000008.0,연희104고지앞.구성산회관(중),37.5663167,126.9253,wydm8q
112000008.0,연희104고지앞.구성산회관,37.5662421,126.925073,wydm8q
112000010.0,서대문우체국(중),37.56185,126.9320833,wydm8m
112000010.0,서대문우체국,37.5617697,126.9320446,wydm8m
112000012.0,연세대앞(중),37.5599667,126.9353333,wydm8m
112000012.0,연세대앞,37.5599353,126.9357001,wydm8m
112000014.0,세브란스병원앞(중),37.5600333,126.9386,wydm8t
112000014.0,세브란스병원앞,37.5599674,126.9384506,wydm8t
112000016.0,이대후문(중),37.5627167,126.9433333,wydm8w
112000016.0,이대후문,37.5626001,126.9433012,wydm8w
100000033.0,사직단,37.5748833,126.9681833,wydmc0
100000033.0,사직단,37.5748553,126.9681889,wydmc0
100000032.0,서울경찰청.경복궁역,37.5758167,126.9714833,wydmc2
100000032.0,서울경찰청.경복궁역,37.5757446,126.9714842,wydmc2
100000370.0,안국역.인사동,37.5763329,126.9855365,wydmc8
100000128.0,창경궁.서울대학교병원,37.5788279,126.9968717,wydmcc
100000131.0,명륜동2가.성균관대입구,37.5833334,126.9993987,wydmcc
100000102.0,원남동,37.5745667,126.9973333,wydmcb
100000102.0,원남동,37.5745325,126.9973383,wydmcb
100000029.0,광화문.금호아시아나본관앞,37.570288,126.9731335,wydm9r
100000028.0,서울역사박물관.경교장.강북삼성병원,37.5700333,126.9713,wydm9r
100000028.0,서울역사박물관.경교장.강북삼성병원,37.570023,126.971248,wydm9r
100000368.0,서대문역사거리.적십자병원,37.5670167,126.96755,wydm9n
100000368.0,서대문역사거리.적십자병원,37.5671081,126.9675878,wydm9n
100000073.0,서대문.서울시교육청,37.5682833,126.9645167,wydm9p
100000073.0,서대문.서울시교육청,37.5682538,126.9645273,wydm9p
112000438.0,독립문(경유),37.5722167,126.9597667,wydm9p
112000187.0,독립문공원.극동아파트,37.5720167,126.9595667,wydm9p
112000187.0,독립문공원.극동아파트,37.5718528,126.959319,wydm9p
112000017.0,이대후문(중),37.5631,126.94365,wydm8w
112000017.0,이대후문,37.5630635,126.9436483,wydm8w
112000015.0,세브란스병원앞(중),37.5601167,126.93905,wydm8t
112000015.0,세브란스병원앞,37.5601326,126.9389236,wydm8t
112000013.0,연세대앞(중),37.56015,126.9355333,wydm8m
112000013.0,연세대앞,37.560336,126.934881,wydm8m
112000013.0,연세대앞,37.5601569,126.9354996,wydm8m
112000011.0,서대문우체국(중),37.5625667,126.9314333,wydm8q
112000011.0,서대문우체국,37.5625326,126.9314621,wydm8q
112000009.0,연희104고지앞.구성산회관(중),37.5663667,126.92575,wydm8q
112000009.0,연희104고지앞.구성산회관,37.566357,126.925786,wydm8q
113000108.0,성산2교,37.5655667,126.9122333,wydjxy
113000108.0,성산2교,37.5656929,126.9126441,wydjxy
113000106.0,마포중앙도서관,37.5640667,126.90685,wydjxy
113000106.0,마포중앙도서관,37.564253,126.907457,wydjxy
113000103.0,마포구청역,37.5627667,126.9026667,wydjxw
113000103.0,마포구청역,37.5627277,126.9026625,wydjxw
118000130.0,영등포아리수정수센터,37.5479333,126.8834167,wydjx7
118000130.0,영등포아리수정수센터,37.5475241,126.8841131,wydjx7
115000001.0,염창역.서울도시가스(중),37.5471333,126.8758833,wydjx5
115000001.0,염창역.서울도시가스,37.5470974,126.8758813,wydjx5
115000003.0,등촌역.강서보건소(중),37.5489667,126.8686333,wydjwg
115000003.0,등촌역.강서보건소,37.5490054,126.8686519,wydjwg
115000005.0,등촌중학교.백석초등학교(중),37.5526667,126.8615667,wydjwu
115000005.0,등촌중학교.백석초등학교,37.5526278,126.8615536,wydjwu
115000588.0,강서구청사거리.서울디지털대학교(중),37.5547167,126.8558667,wydjws
115000588.0,강서구청사거리.서울디지털대학교,37.5547564,126.8557818,wydjws
115000590.0,KBS스포츠월드(중),37.55665,126.8504,wydjws
115000590.0,KBS스포츠월드,37.5566007,126.850463,wydjws
115000592.0,한국가스기술공사(중),37.5579,126.8454,wydjwm
115000592.0,한국가스기술공사,37.5578531,126.8454938,wydjwm
115000594.0,발산역(중),37.5585333,126.8391833,wydjwm
115000594.0,발산역,37.5584907,126.8391584,wydjwm
115000923.0,마곡동로사거리(중),37.55925,126.83185,wydjwj
115000923.0,마곡동로사거리,37.5590346,126.8345854,wydjwj
115000895.0,마곡역(중),37.5596833,126.8275833,wydjwj
115000895.0,마곡역,37.559695,126.827513,wydjwj
115000946.0,강서세무서(중),37.5601667,126.8226667,wydjtv
115000946.0,강서세무서,37.5602011,126.822702,wydjtv
115000894.0,공항중학교.마곡엠밸리9.10단지(중),37.56075,126.8168833,wydjtv
115000894.0,공항중학교.마곡엠밸리9 10단지,37.5607316,126.8173343,wydjtv
115000633.0,송정역(중),37.5613667,126.8111167,wydjtt
115000633.0,송정역,37.5613497,126.8110722,wydjtt
115000617.0,롯데몰.김포공항역,37.5623,126.8032667,wydjtq
115000617.0,롯데몰.김포공항,37.562466,126.802932,wydjtq
115000617.0,롯데몰.김포공항역,37.5624719,126.802962,wydjtq
115000298.0,한국공항공사,37.5625333,126.7987667,wydjtq
115000298.0,한국공항공사,37.56253,126.798237,wydjtq
115000298.0,한국공항공사,37.56242,126.798863,wydjtq
115000281.0,김포공항국내선(2번홈),37.5583667,126.8047,wydjtt
115000281.0,김포공항국내선,37.5583803,126.8047524,wydjtt
115000069.0,방화동도시개발11단지,37.5708667,126.8044167,wydjtx
115000069.0,방화동도시개발11단지,37.570854,126.804378,wydjtx
115000069.0,방화동도시개발11단지,37.570852,126.804202,wydjtx
115000070.0,개화119안전센터,37.5752833,126.8025167,wydjv2
115000070.0,개화2치안센터,37.575312,126.802531,wydjv2
115000070.0,개화119안전센터,37.575195,126.8026,wydjv2
115000320.0,개화역광역환승센터,37.57835,126.7975833,wydjv2
115000320.0,개화역광역환승센터,37.578397,126.797605,wydjv2
115000320.0,개화역광역환승센터,37.57845,126.797811,wydjv2
114000271.0,양천공영차고지,37.50875,126.83765,wydjqk
114000271.0,양천공영차고지,37.5090434,126.8375418,wydjqk
114000258.0,대일관광고.푸른마을3단지,37.5110757,126.8363632,wydjqh
114000283.0,푸른마을1단지앞,37.5126,126.8354,wydjqh
114000283.0,푸른마을1단지.이든채아파트,37.5126531,126.8353881,wydjqh
114000219.0,푸른마을2단지아파트,37.5143833,126.8339333,wydjqj
114000219.0,양천중앙도서관.푸른마을2단지,37.5141912,126.8340906,wydjqj
114000221.0,신월시영아파트.강월초등학교,37.5155,126.83485,wydjqj
114000221.0,신월시영아파트.강월초등학교,37.515731,126.83553,wydjqj
114000225.0,금실어린이공원,37.5170833,126.8381833,wydjqm
114000225.0,금실어린이공원,37.5179542,126.8377738,wydjqm
114000250.0,신월시영아파트중문,37.51905,126.8368333,wydjqn
114000250.0,신월시영아파트중문,37.5190114,126.8368312,wydjqn
114000261.0,신월문화체육센터,37.5200794,126.836482,wydjqn
114000119.0,한빛종합사회복지관,37.521161,126.8391118,wydjqq
114000118.0,강서초등학교,37.5217637,126.8416877,wydjqq
114000117.0,신월2동주민센터입구,37.5226798,126.8455539,wydjqq
114000116.0,양강중학교,37.523711,126.8499936,wydjqw
114000171.0,신정역(은행정).신정4동주민센터,37.52465,126.8542167,wydjqx
114000171.0,신정역(은행정).신정4동주민센터,37.5246301,126.8542989,wydjqx
114000170.0,신서고등학교.영상고등학교입구,37.5254333,126.8599167,wydjqz
114000170.0,신서고등학교.영상고등학교입구,37.5253957,126.8599725,wydjqz
114000169.0,목동역.목동오거리,37.5258667,126.8631167,wydjqz
114000169.0,목동역.목동오거리,37.5258057,126.8631068,wydjqz
114000057.0,목동역.홍익병원,37.5273462,126.8643441,wydjqz
114000001.0,홍익병원목동관,37.5307277,126.8640381,wydjwb
114000011.0,목동사거리,37.5332695,126.8638355,wydjwb
114000012.0,영도중.강서고입구.기아양서대리점,37.5361735,126.863622,wydjwc
114000013.0,목동시장.대일고교.배광교회,37.539005,126.8638409,wydjwc
114000026.0,목동성원아파트,37.542295,126.8631752,wydjwf
114000027.0,목3동주민센터.현대아이파크.실로암안과,37.5448325,126.862401,wydjwf
114000028.0,등촌역6번출구.목동깨비시장,37.5496948,126.8639369,wydjwg
118000133.0,양평동한솔아파트,37.5439167,126.89045,wydjx6
118000133.0,양평동한솔아파트,37.5439165,126.8903472,wydjx6
118000129.0,양평한신아파트.선유도공원입구,37.5417667,126.8943167,wydjxd
118000129.0,양평한신아파트.선유도공원입구,37.5416485,126.8944278,wydjxd
118000489.0,양화대교전망카페,37.53982,126.901182,wydjx9
113000508.0,합정역(가상),37.547977,126.909858,wydjxg
113000424.0,합정역(중),37.5489333,126.9129833,wydjxg
113000424.0,합정역,37.54887,126.912553,wydjxg
113000424.0,합정역,37.5488741,126.9128323,wydjxg
100000025.0,광화문,37.5700333,126.97625,wydm9r
100000025.0,광화문,37.5698453,126.9763838,wydm9r
101000038.0,시청.서소문청사,37.56355,126.9749667,wydm9q
112000054.0,충정로역2호선,37.5595667,126.9639,wydm9j
112000054.0,충정로역2호선,37.5596112,126.9640265,wydm9j
113000509.0,합정역(가상),37.551338,126.916227,wydm8h
113000412.0,합정역(중),37.5495833,126.9138333,wydjxg
113000412.0,합정역,37.549722,126.913938,wydjxg
113000412.0,합정역,37.5496815,126.9139971,wydjxg
118000490.0,양화대교전망카페,37.539938,126.900755,wydjx9
118000131.0,양평한신아파트.선유도공원입구,37.542,126.8947667,wydjxd
118000131.0,양평한신아파트.선유도공원입구,37.5418639,126.8948788,wydjxd
115000076.0,영일고등학교.강서도서관,37.5489885,126.8633553,wydjwg
115000077.0,아이파크아파트.백석중학교.실로암안과,37.5451448,126.8621412,wydjwf
115000078.0,등촌2동주민센터.등촌동대림아파트,37.5419424,126.8629698,wydjwf
115000079.0,대일고교.임광아파트.배광교회,37.5397913,126.8635679,wydjwc
115000080.0,용문사.시립화곡청소년센터,37.5370972,126.8633458,wydjwc
115000082.0,목동사거리,37.5316337,126.8636088,wydjwb
114000181.0,목동역.홍익병원,37.5280495,126.8639151,wydjqz
114000182.0,목동역.목동오거리,37.526,126.8628,wydjqz
114000182.0,목동역.목동오거리,37.5259586,126.8627909,wydjqz
114000183.0,신서고교.영상고교입구,37.5256833,126.8604167,wydjqz
114000183.0,신서고교.영상고교입구,37.525653,126.8603986,wydjqz
114000184.0,신정역(은행정).신정4동주민센터,37.52485,126.8543667,wydjqx
114000184.0,신정역(은행정).신정4동주민센터,37.5248278,126.8542358,wydjqx
114000207.0,양강중학교,37.5238313,126.8496618,wydjqx
114000208.0,신월2동주민센터입구.경창전통시장,37.523024,126.8461879,wydjqq
114000209.0,강서초등학교,37.5220325,126.8418886,wydjqq
114000210.0,한빛종합사회복지관,37.52134,126.8388739,wydjqq
114000192.0,신월문화체육센터,37.5202074,126.8363127,wydjqn
114000251.0,신월시영아파트중문,37.5191018,126.8364045,wydjqn
114000226.0,금실어린이공원,37.5174285,126.8378532,wydjqm
114000222.0,신월시영아파트.강월초등학교,37.5159333,126.8352667,wydjqj
114000222.0,신월시영아파트.강월초등학교,37.515937,126.835305,wydjqj
114000220.0,양천중앙도서관.푸른마을2단지,37.514032,126.833988,wydjqj
114000288.0,푸른마을1단지.이든채아파트,37.512878,126.83488,wydjqj
114000259.0,대일관광고.푸른마을3단지,37.5113667,126.8358,wydjqh
114000259.0,대일관광고.푸른마을3단지,37.511319,126.835885,wydjqh
114000267.0,양천공영차고지,37.5084833,126.8374667,wydjqk
114000267.0,양천공영차고지,37.5086072,126.8373326,wydjqk
114000190.0,신월동우성상가,37.5218158,126.8337366,wydjqn
114000189.0,신월문화체육센터,37.519969,126.835249,wydjqn
114000115.0,신한은행신월동지점,37.5178667,126.8418667,wydjqm
114000115.0,신한은행신월동지점,37.5178279,126.8418635,wydjqm
114000113.0,신곡시장.금빛새마을금고,37.5193167,126.8438333,wydjqq
114000113.0,신곡시장.금빛새마을금고,37.5192849,126.8438198,wydjqq
114000111.0,동방아파트.신월종합사회복지관,37.5214667,126.8463,wydjqq
114000111.0,동방아파트.신월종합사회복지관,37.5214264,126.8462896,wydjqq
114000109.0,신정네거리.신정119안전센터,37.5220833,126.8507333,wydjqw
114000109.0,신정네거리.신정119안전센터,37.5220233,126.85073,wydjqw
114000147.0,신정네거리역,37.52105,126.8535333,wydjqw
114000147.0,신정네거리역,37.5210121,126.8535197,wydjqw
114000396.0,경서농협,37.5213667,126.8563,wydjqw
114000396.0,경서농협,37.521363,126.856298,wydjqw
114000144.0,우리은행신정동지점,37.5217,126.8593167,wydjqy
114000144.0,우리은행신정동지점,37.521705,126.859385,wydjqy
114000139.0,신정1동우체국,37.5219667,126.8616167,wydjqy
114000139.0,신정1동우체국,37.521953,126.861673,wydjqy
114000165.0,서울남부지방법원.서울남부지방검찰청,37.5221667,126.8633,wydjqy
114000165.0,서울남부지방법원.서울남부지방검찰청,37.522194,126.8633685,wydjqy
114000155.0,진명여고,37.5239833,126.8651167,wydjqz
114000155.0,진명여고,37.5239401,126.8651037,wydjqz
114000151.0,목동역,37.52575,126.8655667,wydjqz
114000151.0,목동역,37.5257094,126.8655656,wydjqz
114000162.0,목동7단지,37.5255833,126.8669667,wydjqz
114000162.0,목동7단지,37.5255344,126.8668872,wydjqz
114000061.0,목운초등학교.목운중학교,37.52615,126.8731833,wydjrp
114000061.0,목운초등학교.목운중학교,37.5260486,126.8732302,wydjrp
114000062.0,목동운동장남문.아이스링크,37.5286667,126.8766167,wydjrp
114000062.0,목동운동장남문.아이스링크,37.5284743,126.8765922,wydjrp
114000049.0,목동5단지C상가.목동운동장북문,37.5328667,126.8775333,wydjx0
114000049.0,목동5단지C상가.목동운동장북문,37.5327708,126.8775356,wydjx0
114000050.0,파리공원,37.5345833,126.8783,wydjx0
114000050.0,파리공원,37.5346216,126.8783257,wydjx0
114000051.0,목동5단지B상가.목5동주민센터,37.53575,126.8814,wydjx3
114000051.0,목동5단지B상가.목5동주민센터,37.535695,126.8811993,wydjx3
114000052.0,이대목동병원.목동6단지앞,37.5367333,126.88425,wydjx3
114000052.0,이대목동병원.목동6단지앞,37.5367253,126.8842348,wydjx3
118000126.0,한신아파트.선유도역,37.5382333,126.8928333,wydjx9
118000126.0,한신아파트.선유도역,37.5381465,126.8929866,wydjx9
118000127.0,선유도역.롯데제과,37.5372167,126.8949,wydjx9
118000127.0,선유도역.롯데제과,37.5371966,126.8948754,wydjx9
118000087.0,당산역,37.5347667,126.9004667,wydjx8
118000087.0,당산역,37.5345885,126.9007189,wydjx8
118000193.0,선유도공원,37.5420167,126.90295,wydjxd
118000193.0,선유도공원,37.542025,126.902915,wydjxd
101000015.0,종근당.충정로역,37.5596167,126.9644833,wydm9j
101000015.0,종근당.충정로역,37.559617,126.964556,wydm9j
101000015.0,종근당.충정로역,37.5595131,126.9644805,wydm9j
101000036.0,서소문,37.56325,126.9748833,wydm9q
101000036.0,서소문,37.5632067,126.9748872,wydm9q
101000034.0,삼성본관앞,37.5620667,126.9759,wydm9m
101000034.0,삼성본관앞,37.5620517,126.9759075,wydm9m
101000006.0,서울역버스환승센터(6번승강장)(중),37.55515,126.9727333,wydm9k
101000006.0,서울역버스환승센터,37.5554794,126.9728547,wydm9k
101000017.0,한국경제신문사,37.56065,126.9680833,wydm9j
101000017.0,한국경제신문사.서소문역사공원,37.5606234,126.9681135,wydm9j
118000192.0,선유도공원,37.5421667,126.90255,wydjxd
118000192.0,선유도공원,37.542245,126.902595,wydjxd
118000091.0,당산역,37.5347833,126.9023167,wydjx8
118000091.0,당산역,37.5348629,126.9024102,wydjx9
118000128.0,선유도역.롯데제과,37.5372333,126.8954833,wydjx9
118000128.0,선유도역.롯데제과,37.537145,126.8955567,wydjx9
118000125.0,한신아파트.선유도역,37.5384,126.8930167,wydjx9
118000125.0,한신아파트.선유도역,37.5383576,126.8932341,wydjx9
114000046.0,월촌중학교.목동1단지,37.5379333,126.8817,wydjx3
114000046.0,월촌중학교.목동1단지,37.5379586,126.8820591,wydjx3
114000006.0,목동2단지,37.5366333,126.8779333,wydjx1
114000006.0,목동2단지,37.5364855,126.8778373,wydjx1
114000007.0,목동3단지,37.5348333,126.8757167,wydjx1
114000007.0,목동3단지,37.534747,126.875742,wydjx0
114000008.0,목동4단지상가.목동종합운동장,37.5321833,126.8750833,wydjx0
114000008.0,목동4단지상가.목동종합운동장,37.5322979,126.8751149,wydjx0
114000056.0,목1동주민센터,37.5298833,126.8734667,wydjx0
114000056.0,목1동주민센터,37.529802,126.87358,wydjx0
114000060.0,목동7단지,37.5282167,126.8701667,wydjrp
114000060.0,목동7단지,37.5283521,126.8701771,wydjrp
114000063.0,목동7단지.종로학원,37.5255667,126.8691667,wydjqz
114000063.0,목동7단지.종로학원,37.5255297,126.8691649,wydjqz
114000167.0,진명여고,37.52455,126.8645833,wydjqz
114000167.0,진명여고,37.5245071,126.8645744,wydjqz
114000176.0,서울남부지방법원.서울남부지방검찰청,37.5225333,126.8641667,wydjqy
114000176.0,서울남부지방법원.서울남부지방검찰청,37.5224864,126.8641572,wydjqy
114000174.0,신정1동우체국,37.5221833,126.8614167,wydjqy
114000174.0,신정1동우체국,37.5221525,126.8614154,wydjqy
114000168.0,우리은행신정동지점,37.5219167,126.8585833,wydjqw
114000168.0,우리은행신정동지점,37.5218698,126.8585796,wydjqw
114000180.0,신정4동경서농협,37.5215,126.8550833,wydjqw
114000180.0,신정4동경서농협,37.5214619,126.8550766,wydjqw
114000177.0,신정네거리역,37.5213167,126.8534333,wydjqw
114000177.0,신정네거리역,37.5212769,126.853432,wydjqw
114000108.0,신정네거리.해누리분수광장,37.5219333,126.8515167,wydjqw
114000108.0,신정네거리해누리분수광장,37.5218864,126.8515143,wydjqw
114000110.0,동방아파트,37.5219167,126.8463333,wydjqq
114000110.0,동방아파트,37.5218824,126.8463249,wydjqq
114000112.0,신곡시장.금빛새마을금고,37.5196833,126.84375,wydjqq
114000112.0,신곡시장.금빛새마을금고,37.5196434,126.8437433,wydjqq
114000114.0,신한은행신월동지점,37.5176833,126.8408333,wydjqm
114000114.0,신한은행신월동지점,37.5179563,126.8415193,wydjqm
114000193.0,신월동우성상가,37.5215334,126.834106,wydjqn
111001112.0,진관공영차고지,37.6465833,126.9079333,wydnpv
111001112.0,진관공영차고지,37.6467463,126.9079256,wydnpv
111000330.0,지축교앞,37.64485,126.9195833,wydq0j
111000330.0,지축교앞,37.6447808,126.9196239,wydq0j
111000331.0,진관중고교.약수사입구,37.6451667,126.9228667,wydq0j
111000331.0,진관중고교약수사입구,37.6451606,126.9229619,wydq0j
111000138.0,진관초교입구,37.64685,126.92585,wydq0m
111000138.0,진관초교입구,37.6469051,126.9258465,wydq0m
111000150.0,푸르지오625동앞.관음사입구,37.6489333,126.9285667,wydq0m
111000150.0,푸르지오625동앞.관음사입구,37.6488387,126.9285859,wydq0m
111000148.0,삼천리골입구.56사단북한산부대,37.6500667,126.93335,wydq0m
111000148.0,삼천리골입구56사단북한산부대,37.6499463,126.9334093,wydq0m
111000345.0,입곡삼거리,37.6501167,126.9362833,wydq0t
111000345.0,입곡삼거리,37.649733,126.936408,wydq0t
111000552.0,하나고.삼천사.진관사입구,37.64255,126.9385333,wydq0s
111000552.0,하나고.삼천사.진관사입구,37.6417643,126.9381067,wydq0s
111000261.0,푸르지오530동앞,37.6379333,126.9352,wydq07
111000261.0,제각말5단지.은평뉴타운도서관,37.6367361,126.9344374,wydq07
111000104.0,신도중학교,37.6332167,126.9316,wydq06
111000104.0,신도중학교,37.6333482,126.931529,wydq06
111000109.0,폭포동.은평노인종합복지관,37.6313667,126.9310667,wydq06
111000109.0,폭포동.은평노인종합복지관,37.6313826,126.9310069,wydq06
111000110.0,은평경찰서,37.6280833,126.9292333,wydq03
111000110.0,은평경찰서,37.6280773,126.9291836,wydq03
111000111.0,연신초등학교,37.62565,126.9287667,wydq03
111000111.0,연신초등학교,37.6256234,126.9287702,wydq03
111000112.0,불광지구대,37.6218833,126.9265,wydq02
111000112.0,불광지구대,37.6218554,126.9265058,wydq02
111000113.0,새장골유래비,37.62055,126.9243833,wydq00
111000113.0,새장골유래비,37.6205196,126.9243796,wydq00
111000114.0,연서시장,37.6195833,126.9225333,wydq00
111000114.0,연서시장,37.6195966,126.922534,wydq00
111000031.0,연신내역,37.61755,126.9222333,wydq00
111000031.0,연신내역,37.6175221,126.922236,wydq00
111000929.0,동명여고.천주교불광동성당(중),37.6162667,126.9239333,wydmbp
111000929.0,동명여고.천주교불광동성당,37.6162184,126.9239252,wydmbp
111000931.0,불광역3.6호선(중),37.6126833,126.92795,wydmbr
111000931.0,불광역3.6호선,37.6124473,126.9281552,wydmbr
111000933.0,불광역3호선.서울혁신파크(중),37.6091833,126.9309333,wydmbq
111000933.0,불광역3호선.서울혁신파크,37.6092474,126.9309073,wydmbq
111000935.0,한전성서지사.북한산푸르지오(중),37.6065167,126.9333667,wydmbq
111000935.0,한전성서지사.북한산푸르지오,37.6061799,126.9336861,wydmbm
111000937.0,녹번역(중),37.6028667,126.93495,wydmbm
111000937.0,녹번역,37.6024349,126.9350485,wydmbm
112000405.0,산골고개(중),37.5953333,126.93995,wydmbs
112000405.0,산골고개,37.5953018,126.9399957,wydmbs
112000407.0,홍제역.서대문세무서(중),37.5886,126.9442667,wydmbd
112000407.0,홍제역.서대문세무서,37.5884908,126.9443652,wydmbd
112000416.0,홍제삼거리.인왕산한신휴플러스(중),37.5852667,126.9477833,wydmbf
112000416.0,홍제삼거리.인왕산한신휴플러스,37.585207,126.9478427,wydmbf
112000398.0,무악재역(중),37.5832,126.9498,wydmbc
112000398.0,무악재역,37.5831543,126.9498097,wydmbc
112000404.0,안산초등학교(중),37.58065,126.9515333,wydmbc
112000404.0,안산초등학교,37.580686,126.951572,wydmbc
112000402.0,독립문역.한성과학고(중),37.5748667,126.9573167,wydmbb
112000402.0,독립문역.한성과학고,37.5746889,126.9575774,wydmbb
100000363.0,영천시장(중),37.5699833,126.9625,wydm9p
100000363.0,영천시장,37.5699391,126.9625329,wydm9p
112000403.0,서대문역(중),37.56645,126.9659167,wydm9n
112000403.0,서대문역,37.5664745,126.96583,wydm9n
112000399.0,경찰청.동북아역사재단(중),37.5624833,126.96925,wydm9q
112000399.0,경찰청.동북아역사재단,37.5624764,126.9692243,wydm9q
101000005.0,서울역버스환승센터(5번승강장)(중),37.55515,126.9726833,wydm9k
101000005.0,서울역버스환승센터,37.5553876,126.9727617,wydm9k
101000027.0,숭례문,37.55845,126.9741,wydm9m
101000027.0,숭례문,37.5584195,126.9740436,wydm9m
101000114.0,남대문시장앞.이회영활동터,37.5610167,126.9787333,wydm9m
101000114.0,남대문시장앞.이회영활동터,37.5609394,126.9785803,wydm9m
101000043.0,롯데영프라자,37.5630333,126.9820833,wydm9w
101000043.0,롯데영프라자,37.562885,126.982008,wydm9w
101000040.0,우리은행종로지점,37.5676833,126.9829333,wydm9w
101000040.0,우리은행종로지점,37.567519,126.9829289,wydm9w
100000004.0,종로2가.삼일교(중),37.5686833,126.9875333,wydm9x
100000004.0,종로2가.삼일교,37.5685792,126.987613,wydm9x
101000059.0,을지로2가.기업은행본점.서울노동청,37.56625,126.9865333,wydm9w
101000059.0,을지로2가.기업은행본점.서울노동청,37.5662462,126.9865233,wydm9w
101000041.0,롯데백화점,37.5644667,126.98215,wydm9w
101000041.0,롯데백화점,37.5644917,126.9820649,wydm9w
101000018.0,경찰청.동북아역사재단,37.5630333,126.96915,wydm9q
101000018.0,경찰청.동북아역사재단,37.5630494,126.9691267,wydm9q
100000362.0,영천시장(중),37.5697833,126.96285,wydm9p
100000362.0,영천시장,37.5696103,126.9630063,wydm9p
112000401.0,독립문역.한성과학고(중),37.5757333,126.95645,wydmbb
112000401.0,독립문역.한성과학고,37.5757049,126.9564198,wydmbb
112000400.0,무악재역(중),37.5817833,126.9506667,wydmbc
112000400.0,무악재역,37.5818652,126.9506553,wydmbc
112000409.0,인왕산.홍제원아파트(중),37.5844667,126.9488333,wydmbf
112000409.0,인왕산.홍제원아파트,37.5843965,126.9488623,wydmbf
112000408.0,홍제역.서대문세무서(중),37.5878333,126.9453833,wydmbd
112000408.0,홍제역.서대문세무서,37.5878433,126.9453225,wydmbd
112000406.0,산골고개(중),37.5949333,126.94045,wydmbe
112000406.0,산골고개,37.5946921,126.9406677,wydmbe
111000938.0,녹번역(중),37.6018167,126.9353,wydmbm
111000938.0,녹번역,37.6018619,126.935322,wydmbm
111000936.0,한전성서지사.녹번동푸르지오(중),37.6053167,126.9344667,wydmbm
111000936.0,한전성서지사.북한산푸르지오,37.6053738,126.9344004,wydmbm
111000934.0,불광역3호선.서울혁신파크(중),37.6084333,126.9318667,wydmbq
111000934.0,불광역3호선.서울혁신파크,37.6084378,126.9317496,wydmbq
111000932.0,불광역3.6호선(중),37.61185,126.9288167,wydmbr
111000932.0,불광역3.6호선,37.6119112,126.9287979,wydmbr
111000930.0,동명여고.천주교불광동성당(중),37.6155167,126.9251333,wydmbr
111000930.0,동명여고.천주교불광동성당,37.6154822,126.9252128,wydmbr
111000020.0,연신내역,37.6182167,126.9221667,wydq00
111000020.0,연신내역,37.6181925,126.9221617,wydq00
111000097.0,연서시장,37.6192667,126.9225833,wydq00
111000097.0,연서시장,37.6192425,126.922591,wydq00
111000098.0,종로약국,37.6203833,126.9246,wydq00
111000098.0,종로약국,37.6203765,126.924638,wydq00
111000099.0,불광지구대,37.6218,126.9267833,wydq02
111000099.0,불광지구대,37.6217745,126.9267891,wydq02
111000100.0,북한산대창센시티아파트,37.6248333,126.9288167,wydq03
111000100.0,북한산대창센시티아파트,37.624807,126.9288094,wydq03
111000101.0,은평경찰서,37.6276667,126.9294667,wydq03
111000101.0,은평경찰서,37.6276323,126.9294752,wydq03
111000102.0,폭포동,37.6306833,126.93105,wydq06
111000102.0,폭포동,37.630715,126.931032,wydq06
111000107.0,은평노인종합복지관.신도중학교,37.6324833,126.9316,wydq06
111000107.0,은평노인종합복지관.신도중학교,37.632495,126.931533,wydq06
111000924.0,기자촌11단지앞,37.6346333,126.9326167,wydq07
111000924.0,기자촌11단지앞,37.634757,126.93258,wydq07
111000260.0,푸르지오521동,37.6384,126.9355833,wydq07
111000260.0,제각말5단지.은평뉴타운도서관,37.638398,126.93551,wydq07
111000342.0,하나고.삼천사.진관사입구,37.643,126.93905,wydq0s
111000342.0,하나고.삼천사.진관사입구,37.641815,126.938408,wydq0s
111000141.0,삼천리골입구.56사단북한산부대,37.6504167,126.9350667,wydq0q
111000141.0,삼천리골입구56사단북한산부대,37.6503446,126.9351168,wydq0q
111000140.0,푸르지오618동앞.관음사입구,37.6497,126.9291833,wydq0m
111000140.0,푸르지오618동앞.관음사입구,37.6496105,126.9293196,wydq0m
111000149.0,진관초교.관음사입구,37.6477667,126.9267333,wydq0m
111000149.0,진관초교관음사입구,37.6477735,126.9268689,wydq0m
111000151.0,진관중고교.약수사입구,37.6457667,126.9237,wydq0j
111000151.0,진관중고교약수사입구,37.6457026,126.9236855,wydq0j
111000329.0,지축교앞,37.6448667,126.9176667,wydq0j
111000329.0,지축교앞,37.6448011,126.9177155,wydq0j
111001113.0,진관공영차고지,37.6465333,126.9080667,wydnpv
111001113.0,진관공영차고지,37.6466084,126.9081867,wydnpv
111000060.0,선진운수종점,37.6140333,126.9104333,wydjzz
111000060.0,선진운수종점,37.6139042,126.9107629,wydjzz
111000127.0,구산동주민센터.구산치안센터,37.6120333,126.9112667,wydjzz
111000127.0,구산동주민센터.구산치안센터,37.6119997,126.9112635,wydjzz
111000128.0,구산중학교.구산교회,37.6088333,126.9108333,wydjzy
111000128.0,구산중학교.구산교회,37.6088023,126.9108335,wydjzy
111000129.0,시립서북병원세현교회앞,37.60605,126.9104667,wydjzv
111000129.0,시립서북병원세현교회앞,37.6060168,126.9104597,wydjzv
111000130.0,서울기독대학교입구,37.6020667,126.9102333,wydjzv
111000130.0,서울기독대학교입구,37.602032,126.9102266,wydjzv
111000131.0,우남교통,37.5998,126.9101333,wydjzu
111000131.0,우남교통,37.5997666,126.9101252,wydjzu
111000278.0,신사동고개,37.5977669,126.9099169,wydjzu
111000072.0,상신초등학교,37.5956333,126.9099667,wydjzu
111000072.0,신사동고개사거리,37.5956071,126.9099682,wydjzu
111000073.0,신사초등학교,37.5933833,126.91285,wydjzg
111000073.0,신사초등학교,37.5933583,126.9128484,wydjzg
111000074.0,응암오거리,37.5907322,126.9161467,wydmb5
111000077.0,대림시장,37.5877833,126.9165,wydmb4
111000077.0,대림시장,37.5878268,126.9165435,wydmb4
112000096.0,동도하이츠아파트,37.5849333,126.9147667,wydmb4
112000096.0,동도하이츠아파트,37.5849012,126.9147685,wydmb4
112000094.0,KT가좌지사,37.5828167,126.9133167,wydjzc
112000094.0,KT가좌지사,37.5828159,126.9133034,wydjzc
112000092.0,북가좌2동주민센터,37.5803,126.9114667,wydjzc
112000092.0,북가좌2동주민센터,37.5802996,126.9114608,wydjzc
112000100.0,DMC래미안e.편한세상2.4단지,37.5767833,126.911,wydjzb
112000100.0,DMC래미안e.편한세상2.4단지,37.5767408,126.9109918,wydjzb
112000102.0,북가좌삼호.가재울아이파크아파트,37.5753,126.9133167,wydjzb
112000102.0,북가좌삼호.DMC아이파크아파트,37.5752684,126.9133099,wydjzb
112000106.0,DMC파크뷰자이.별동상가,37.5749667,126.91735,wydmb0
112000106.0,DMC파크뷰자이.별동상가,37.575068,126.9163111,wydmb0
112000097.0,DMC.파크뷰자이,37.5729667,126.9133333,wydjxz
112000097.0,DMC.파크뷰자이,37.5737818,126.9161114,wydmb0
112000099.0,모래내삼거리,37.57075,126.91325,wydjxz
112000099.0,모래내삼거리,37.5708653,126.9131669,wydjxz
112000127.0,신촌기차역,37.5586667,126.9426,wydm8t
112000127.0,신촌기차역,37.5586548,126.9425311,wydm8t
119000028.0,노들역,37.51285,126.9508833,wydm2v
119000028.0,노들역,37.5128098,126.9508931,wydm2u
119000027.0,사육신공원,37.51315,126.9486667,wydm2v
119000027.0,사육신공원,37.513315,126.947977,wydm2v
119000025.0,노량진역,37.5139,126.9435,wydm2t
119000025.0,노량진역2번출구,37.5138535,126.9433483,wydm2t
119000097.0,동작구청.노량진초등학교앞,37.5104167,126.9400333,wydm2s
119000097.0,동작구청.노량진초등학교앞,37.5103727,126.9400366,wydm2s
119000099.0,장성교회,37.5084167,126.9399833,wydm2s
119000099.0,장성교회,37.508211,126.9399682,wydm2s
119000059.0,동작문화복지센터.동작보건소,37.5049377,126.9407908,wydm2e
119000061.0,상도노빌리티아파트,37.5047608,126.9457915,wydm2e
119000067.0,상도시장,37.5016667,126.9486167,wydm2f
119000067.0,상도역,37.5016271,126.9486225,wydm2f
119000069.0,상도동중앙하이츠빌.상도전통시장,37.49885,126.9511833,wydm2f
119000069.0,상도동중앙하이츠빌.상도전통시장,37.4988131,126.951185,wydm2f
119000071.0,숭실대입구역,37.4967449,126.9528636,wydm2f
119000076.0,숭실대정문앞,37.49515,126.957055,wydm2c
119000078.0,숭실대별관앞,37.494639,126.9602929,wydm31
119000319.0,사당롯데캐슬골든포레.사당해그린,37.4930149,126.9625058,wydm31
119000080.0,사당5치안센터,37.4890277,126.9656493,wydm30
119000082.0,총신대,37.487752,126.9664052,wydm30
119000083.0,사당중학교,37.4864269,126.9680184,wydm30
119000086.0,남성역,37.4847155,126.9706143,wydm1r
119000088.0,남성역골목시장,37.4835063,126.9730387,wydm1r
119000296.0,사당동대아신협앞,37.4832641,126.9761194,wydm1r
119000089.0,남성초등학교,37.484155,126.97911,wydm1r
119000091.0,이수역9번출구,37.4846184,126.9802576,wydm1x
121000304.0,이수역,37.4854596,126.9840028,wydm38
121000305.0,방배초등학교,37.4856847,126.9863829,wydm38
121000306.0,방배고개,37.4865004,126.9903017,wydm38
121001327.0,내방역1번출구,37.48785,126.9948,wydm3b
121001327.0,내방역1번출구,37.4879027,126.9948004,wydm3b
121001329.0,서리풀문화광장,37.4909097,127.0051901,wydm61
121000300.0,서초역3번출구,37.490795,127.0078482,wydm60
121000066.0,서초동삼성아파트,37.4885115,127.0089653,wydm60
121000084.0,이수교차로(미정차),37.501103,126.983547,wydm3d
121000084.0,서울교대사거리,37.4877389,127.012974,wydm62
121000058.0,교대역3,37.49365,127.0129833,wydm63
121000058.0,교대역10번출구,37.4936114,127.0129931,wydm63
121001328.0,대법원앞,37.49159,127.0063545,wydm61
121000309.0,내방역,37.4874465,126.9926575,wydm3b
121000310.0,방배고개,37.4862946,126.9888524,wydm38
121000311.0,이수역,37.4857905,126.9847839,wydm38
119000092.0,이수역10번출구,37.4848328,126.9801874,wydm1x
119000090.0,남성초등학교,37.4842992,126.9784299,wydm1r
119000087.0,남성역골목시장,37.483569,126.9734201,wydm1r
119000085.0,남성역,37.4849291,126.9707465,wydm1r
119000084.0,사당중학교,37.4866369,126.9681789,wydm30
119000081.0,총신대,37.4887422,126.9661798,wydm30
119000079.0,숭실대별관앞,37.49493,126.9600224,wydm31
119000077.0,숭실대정문앞,37.4953183,126.9572808,wydm2c
119000073.0,숭실대입구역,37.4965,126.9537333,wydm2f
119000073.0,숭실대입구역,37.4964614,126.9537334,wydm2f
119000070.0,상도동중앙하이츠빌.상도전통시장,37.4987333,126.9517667,wydm2f
119000070.0,상도동중앙하이츠빌.상도전통시장,37.4986899,126.9517743,wydm2f
119000068.0,상도시장,37.5012833,126.9495167,wydm2f
119000068.0,상도역,37.501249,126.9495197,wydm2f
119000062.0,상도노빌리티아파트,37.5043269,126.9468675,wydm2e
119000060.0,동작문화복지센터.동작보건소,37.505277,126.941899,wydm2e
119000100.0,청화병원,37.5072833,126.9400833,wydm2e
119000100.0,청화병원,37.507245,126.9400798,wydm2e
119000098.0,동작구청.노량진초등학교앞,37.5106,126.9403333,wydm2s
119000098.0,동작구청.노량진초등학교앞,37.510453,126.940337,wydm2s
119000024.0,노량진역,37.5134333,126.94175,wydm2t
119000024.0,노량진역3번출구,37.5133914,126.941757,wydm2t
112000057.0,이대역,37.557033,126.947073,wydm8v
112000057.0,이대역,37.5569763,126.9469014,wydm8t
112000058.0,신촌기차역입구,37.5568333,126.9439667,wydm8t
112000058.0,신촌기차역입구,37.5568082,126.9438432,wydm8t
112000128.0,신촌기차역,37.5584167,126.9428833,wydm8t
112000128.0,신촌기차역,37.5581513,126.9429333,wydm8t
112000035.0,이대부중,37.5622161,126.9429924,wydm8t
112000037.0,이대부고,37.5648667,126.946,wydm8w
112000037.0,이대부고,37.5653726,126.9464277,wydm8w
112000036.0,이대부중,37.56365,126.9442167,wydm8w
112000036.0,이대부중,37.563644,126.944163,wydm8w
112000024.0,모래내시장.가좌역,37.5699,126.9140667,wydm8p
112000024.0,모래내시장.가좌역,37.5698687,126.9140622,wydjxz
112000098.0,삼성래미안2차아파트,37.5717667,126.9139,wydjxz
112000098.0,삼성래미안2차아파트,37.57125,126.913812,wydjxz
112000432.0,DMC.파크뷰자이,37.5735167,126.9161667,wydmb0
112000432.0,DMC.파크뷰자이,37.5736755,126.9164488,wydmb0
112000105.0,동부센트레빌아파트,37.5752167,126.9152167,wydmb0
112000105.0,동부센트레빌아파트,37.575307,126.915772,wydmb0
112000103.0,북가좌삼호.가재울아이파크아파트,37.5753667,126.9139333,wydjzb
112000103.0,북가좌삼호.DMC아이파크아파트,37.57553,126.913058,wydjzb
112000101.0,모래내우체국.증가교회,37.57655,126.9115167,wydjzb
112000101.0,모래내우체국.증가교회,37.576322,126.911825,wydjzb
112000181.0,북가좌초교사거리,37.57835,126.9103333,wydjzb
112000181.0,북가좌초교사거리,37.578365,126.910333,wydjzb
112000091.0,북가좌2동주민센터,37.5798,126.91145,wydjzc
112000091.0,북가좌2동주민센터,37.579833,126.911478,wydjzc
112000093.0,KT가좌지사,37.5818833,126.91305,wydjzc
112000093.0,KT가좌지사,37.5818525,126.9130475,wydjzc
112000095.0,동도하이츠아파트,37.5847167,126.9150167,wydmb4
112000095.0,동도하이츠아파트,37.584677,126.9150178,wydmb4
111000078.0,대림시장,37.5887167,126.9170333,wydmb4
111000078.0,대림시장,37.5886847,126.9170368,wydmb4
111000069.0,응암오거리,37.5907361,126.9165521,wydmb5
111000070.0,신사초등학교,37.5931667,126.91355,wydjzg
111000070.0,신사초등학교,37.5931399,126.9135451,wydjzg
111000071.0,신사동고개사거리,37.5958595,126.9101548,wydjzu
111000122.0,신사동고개.은평지역자활센터,37.5984133,126.9102536,wydjzu
111000123.0,서울기독대학교입구,37.6014667,126.9103833,wydjzv
111000123.0,서울기독대학교입구,37.6014374,126.9103848,wydjzv
111000124.0,시립서북병원세현교회앞,37.6061833,126.9106667,wydjzv
111000124.0,시립서북병원세현교회앞,37.6061458,126.9106589,wydjzv
111000125.0,구산중학교.구산교회,37.60875,126.911,wydjzy
111000125.0,구산중학교.구산교회,37.608955,126.91102,wydjzy
111000126.0,구산동주민센터.구산치안센터,37.6114833,126.9113833,wydjzy
111000126.0,구산동주민센터.구산치안센터,37.61138,126.911363,wydjzy
111000055.0,선진운수종점,37.6142,126.9107833,wydjzz
111000055.0,선진운수종점,37.6143482,126.9103722,wydjzz
108000066.0,북부수도사업소,37.634235,127.0361604,wydq4g
108000088.0,강북보건소,37.6321072,127.0391909,wydq4f
108000092.0,번동주공4단지,37.631378,127.0399848,wydq4f
108000094.0,번동주공3단지,37.6290195,127.0434628,wydq4f
108000096.0,번동주공1단지,37.6255071,127.0481295,wydq51
107000095.0,월계2교.참누리아파트,37.6232183,127.0503746,wydq51
107000097.0,광운초교앞,37.6202997,127.0528391,wydq50
107000528.0,남대문중학교,37.6180556,127.0546974,wydq50
107000099.0,장위3동주민센터,37.6162245,127.0570354,wydmgr
107000101.0,장삼주유소,37.6141178,127.0592242,wydmgr
107000053.0,장위동동원베네스트.온누리병원,37.6120418,127.0589631,wydmgr
107000039.0,KT월곡지사,37.6029467,127.035189,wydmfv
107000060.0,종암경찰서,37.6014667,127.0330333,wydmft
107000060.0,종암사거리입구,37.6014326,127.0330443,wydmft
107000062.0,종암동주민센터,37.5993167,127.03415,wydmfs
107000062.0,종암동주민센터,37.5994152,127.0341075,wydmfs
107000064.0,숭례초교,37.5948667,127.0356667,wydmfg
107000064.0,숭례초교,37.5948052,127.0356811,wydmfg
107000066.0,고대앞,37.5887,127.0349167,wydmff
107000066.0,고대앞,37.5885636,127.0348108,wydmfd
107000206.0,안암전철역,37.5863644,127.0302759,wydmfd
107000204.0,고려대이공대.고대병원,37.5863683,127.0254738,wydmfd
107000202.0,안암동주민센터,37.586268,127.0223689,wydmf6
107000200.0,보문역,37.5856511,127.0200803,wydmf6
107000088.0,성북구청.성북경찰서,37.5886333,127.0172167,wydmf6
107000088.0,성북구청.성북경찰서,37.5886054,127.0172299,wydmf6
107000086.0,삼선동주민센터,37.5907167,127.0147,wydmf7
107000086.0,삼선동주민센터,37.5906917,127.0147153,wydmf7
107000147.0,삼선교.성북문화원,37.5889957,127.0058033,wydmf4
107000145.0,성북동주민센터.동구마케팅고,37.5907277,127.0040392,wydmf5
107000143.0,경신중고입구,37.5922731,127.0027845,wydmf5
107000141.0,홍익대부속중고등학교입구,37.5932724,127.001531,wydmcg
107000139.0,성북초교.성북선잠박물관,37.5930769,126.9978246,wydmcg
107000137.0,성북구립미술관.쌍다리앞,37.5937446,126.9959436,wydmcg
107000135.0,동방문화대학원대학교,37.5947239,126.9936413,wydmcg
107000514.0,서울다원학교.한용운활동터,37.594665,126.991788,wydmcg
107000133.0,서울다원학교.한용운활동터,37.5946012,126.9913481,wydmcg
107000134.0,동방문화대학원대학교,37.5943995,126.9930728,wydmcg
107000136.0,성북구립미술관.쌍다리앞,37.5935941,126.9958337,wydmcg
107000138.0,성북초교.성북선잠박물관,37.5929147,126.9987894,wydmcg
107000140.0,홍익대부속중고등학교입구,37.5932175,127.0006477,wydmcg
107000142.0,경신중고입구,37.5917865,127.0028344,wydmf5
107000144.0,성북동주민센터.동구마케팅고,37.5907466,127.0036474,wydmf5
107000509.0,한성대입구역,37.5893629,127.0047236,wydmf4
107000222.0,돈암초교입구,37.5910822,127.0122536,wydmf5
107000085.0,삼선동주민센터,37.59065,127.0143333,wydmf7
107000085.0,삼선동주민센터,37.5906107,127.0143473,wydmf7
107000087.0,성북구청.성북경찰서,37.5882833,127.01725,wydmf6
107000087.0,성북구청.성북경찰서,37.5882431,127.0172592,wydmf6
107000199.0,보문역,37.5854637,127.0202535,wydmf6
107000201.0,안암동주민센터,37.5860464,127.0219386,wydmf6
107000203.0,고려대이공대.고대병원,37.5860798,127.0260749,wydmfd
107000205.0,안암역,37.5862292,127.0305239,wydmfd
105000089.0,고려대학교앞,37.5881667,127.03475,wydmfd
105000089.0,고려대학교앞,37.5881473,127.0347743,wydmfd
107000065.0,숭례초등학교,37.59435,127.0361667,wydmfg
107000065.0,숭례초등학교,37.5943969,127.0361701,wydmfg
107000063.0,종암동주민센터,37.5988167,127.03465,wydmfs
107000063.0,종암동주민센터,37.5981892,127.0349442,wydmfu
107000061.0,종암경찰서,37.6010667,127.0337833,wydmft
107000061.0,종암사거리입구,37.601044,127.0337882,wydmft
107000038.0,KT월곡지사,37.602483,127.0338761,wydmft
107000040.0,종암SK아파트,37.6020314,127.0374933,wydmfv
107000051.0,돌곶이역,37.6113185,127.058386,wydmgq
107000102.0,장삼주유소,37.6139733,127.0597361,wydmgr
107000100.0,장위3동주민센터,37.6166153,127.0570263,wydmgr
107000529.0,남대문중학교,37.6177666,127.0553787,wydq50
107000098.0,광운초교,37.6205589,127.0529196,wydq50
107000096.0,월계2교,37.623825,127.050133,wydq51
108000097.0,번동주공1단지,37.627015,127.047227,wydq51
108000095.0,번동주공3단지,37.628652,127.044375,wydq4f
108000093.0,초안교,37.63111,127.04109,wydq4f
108000091.0,강북보건소,37.632478,127.039233,wydq4f
108000111.0,한성운수차고지,37.6342894,127.0371118,wydq4g
108000195.0,한성운수종점,37.634618,127.035297,wydq4g
109000068.0,도봉산입구,37.6869698,127.0404874,wydq6u
109000069.0,도봉고등학교,37.6872443,127.0440331,wydq6u
109000023.0,도봉동한신아파트,37.682614,127.0456109,wydq6g
109000026.0,서울북부지방법원.검찰청.도봉역성황당,37.6770277,127.0446529,wydq6f
109000028.0,도봉견인차량보관소,37.6741048,127.04415,wydq6f
109000077.0,천주교도봉동교회,37.6713333,127.0427,wydq6c
109000077.0,천주교도봉동교회,37.6713119,127.0428107,wydq6c
109000079.0,오봉초등학교,37.6707333,127.03925,wydq6c
109000079.0,오봉초등학교,37.6708391,127.0395581,wydq6c
109000081.0,방학2동공영주차장,37.66955,127.03655,wydq6c
109000081.0,방학2동공영주차장,37.6696083,127.0367133,wydq6c
109000083.0,방학2동주민센터,37.6682667,127.0346167,wydq69
109000083.0,방학2동주민센터,37.6682708,127.0346224,wydq69
109000096.0,방학중학교정문,37.6663777,127.0342826,wydq68
109000222.0,방학동도깨비시장,37.6652321,127.0355369,wydq6b
109000098.0,신한은행방학동지점,37.6632312,127.0371976,wydq6b
109000107.0,국민은행방학지점,37.662595,127.034113,wydq68
109000105.0,방학동신동아아파트,37.662362,127.03202,wydq68
109000103.0,방학3동신동아프라자,37.6613704,127.0274841,wydq68
109000124.0,방학3동주민센터,37.6598133,127.0276286,wydq4x
109000189.0,세그루학원,37.6556242,127.0278333,wydq4w
109000141.0,둘리뮤지엄.대우이안극동아파트,37.6513412,127.0283111,wydq4w
109000139.0,숭미초등학교,37.6500735,127.0279502,wydq4t
109000137.0,쌍문초등학교,37.647095,127.02539,wydq4t
108000110.0,강북중학교,37.6448419,127.023548,wydq4m
108000112.0,광산사거리,37.6425235,127.022992,wydq4k
108000184.0,수유역.강북구청,37.6386311,127.0260514,wydq4e
108000056.0,신일병원,37.6347798,127.0221796,wydq47
108000054.0,강북노인종합복지관,37.6344334,127.0189955,wydq47
108000083.0,삼양동사거리,37.6190766,127.021903,wydq42
108000085.0,성암국제무역고등학교,37.6179423,127.025523,wydq48
108000087.0,삼양동사거리입구,37.61706,127.028487,wydmfx
108000172.0,미아사거리역,37.615385,127.0297349,wydmfx
107000154.0,미아사거리,37.6101676,127.0300443,wydmfw
107000058.0,성가복지병원,37.6059333,127.0311167,wydmft
107000058.0,성가복지병원,37.6058827,127.0311378,wydmft
107000525.0,일신초교.래미안라센트아파트,37.5984577,127.0395147,wydmfu
107000526.0,서울사대부설중학교,37.5961434,127.0383641,wydmfu
107000527.0,서울사대부설고등학교,37.5941605,127.0372992,wydmfg
107000059.0,성가복지병원,37.6057833,127.0315667,wydmft
107000059.0,성가복지병원,37.6057447,127.0315874,wydmft
108000086.0,삼양동사거리입구,37.6172649,127.0285496,wydq48
108000084.0,성암국제무역고등학교,37.6182434,127.0252762,wydq48
108000082.0,삼양동사거리,37.6192164,127.0222677,wydq42
108000055.0,강북노인종합복지관,37.6341901,127.0189887,wydq47
108000057.0,신일병원,37.6343871,127.0212163,wydq47
108000113.0,광산사거리,37.6438445,127.0231023,wydq4k
109000136.0,쌍문초등학교,37.6469743,127.0256814,wydq4t
109000138.0,숭미초등학교,37.649556,127.027789,wydq4t
109000140.0,둘리뮤지엄.대우이안극동아파트,37.651771,127.0284257,wydq4w
109000188.0,세그루학원,37.6565423,127.02799,wydq4x
109000214.0,방학3동주민센터,37.6591681,127.0279037,wydq4x
109000123.0,방학3동신동아프라자,37.6608342,127.02774,wydq4x
109000101.0,방학동신동아타워,37.6617167,127.0281,wydq68
109000101.0,방학동신동아타워,37.6616802,127.028111,wydq68
109000104.0,방학동신동아아파트,37.6620167,127.0313667,wydq68
109000104.0,방학동신동아아파트,37.6619831,127.0313834,wydq68
109000106.0,국민은행방학지점,37.6623667,127.0343167,wydq68
109000106.0,국민은행방학지점,37.6623319,127.034334,wydq68
109000097.0,신한은행방학동지점,37.6630996,127.037439,wydq6b
109000221.0,도깨비시장,37.6653285,127.0356911,wydq6b
109000095.0,방학중학교정문,37.666488,127.034428,wydq68
109000082.0,방학2동주민센터,37.6681095,127.0347266,wydq69
109000080.0,방학2동공영주차장,37.669329,127.0364774,wydq6c
109000078.0,오봉초등학교,37.6705203,127.0391794,wydq6c
109000076.0,천주교도봉동교회,37.6711723,127.0428106,wydq6c
109000027.0,도봉견인차량보관소,37.6741632,127.0446001,wydq6f
109000025.0,서울북부지방법원.검찰청.도봉역성황당,37.6771834,127.0451325,wydq6f
109000024.0,도봉동한신아파트,37.6821047,127.0459586,wydq75
109000070.0,김근태기념도서관.도봉고등학교,37.6874918,127.043934,wydq6u
109000228.0,도봉산입구,37.687212,127.0410409,wydq6u
106000469.0,중랑공영차고지삼거리,37.6128516,127.1048558,wydmur
106000463.0,당너머,37.6128307,127.1079642,wydmur
106000481.0,신내SKV1센터,37.6145474,127.1134525,wydmux
106000458.0,신내데시앙포레아파트220동앞,37.6158044,127.1127215,wydmux
106000460.0,새솔초등학교입구,37.6172677,127.109803,wydqh2
106000472.0,우디안아파트114동앞,37.6188169,127.1075905,wydqh2
106000456.0,중랑경찰서후문,37.6197167,127.1048167,wydqh2
106000456.0,중랑경찰서후문,37.619689,127.1048418,wydqh2
106000204.0,새우개마을,37.6182167,127.10335,wydqh2
106000204.0,새우개마을,37.6182441,127.1033558,wydqh2
106000442.0,신내차량사업소입구,37.612673,127.1018665,wydmur
106000240.0,동서울교회,37.6115852,127.1052575,wydmuq
106000238.0,양원리,37.6093825,127.106538,wydmuq
106000046.0,금란교회앞,37.6006889,127.1038043,wydmuk
106000093.0,삼용사입구,37.5976831,127.1001745,wydmuh
106000138.0,혜원여중고후문,37.5904558,127.0965265,wydmu5
106000136.0,농협앞,37.5894466,127.0919968,wydmu4
106000134.0,면목역,37.5886788,127.0885501,wydmgf
106000132.0,면목복개천,37.5880708,127.0858782,wydmgf
106000130.0,하나은행면목지점,37.5869965,127.0810827,wydmgf
106000023.0,면목5동주민센터.중랑구치매지원센터,37.5850833,127.0796167,wydmgf
106000023.0,면목5동주민센터,37.5850673,127.0796652,wydmgf
106000475.0,늘푸른근린공원,37.58315,127.0796,wydmgc
106000475.0,늘푸른근린공원,37.5831084,127.0796405,wydmgc
106000148.0,홈플러스면목동점,37.5811308,127.0817183,wydmgc
106000150.0,면목두산아파트2차,37.5809856,127.0844378,wydmgc
106000152.0,사가정역,37.5807103,127.0876474,wydmgc
106000154.0,사가정시장,37.5805278,127.0889635,wydmgc
106000108.0,면목동금호어울림아파트,37.5793023,127.0918224,wydmu1
106000110.0,면목동대원칸타빌아파트,37.577572,127.090077,wydmu0
106000112.0,용마폭포공원,37.5759266,127.0885475,wydmgb
106000114.0,용마산역,37.5735061,127.0863981,wydmgb
106000116.0,용마산하늘채아파트,37.5712581,127.0860197,wydmez
104000038.0,용암사입구,37.5679159,127.0860566,wydmez
104000041.0,대원고교앞,37.563966,127.0867086,wydmey
104000023.0,중곡동종점,37.5620725,127.0870618,wydmev
104000024.0,중곡보건지소,37.5599565,127.0873831,wydmev
104000026.0,중곡우체국앞,37.561489,127.0839868,wydmev
104000019.0,중곡2동주민센터앞,37.5598837,127.0808552,wydmev
104000160.0,능동사거리.군자역,37.5566667,127.0789667,wydmeu
104000160.0,능동사거리.군자역,37.556322,127.07882,wydmes
104000159.0,능동교회앞,37.5529167,127.07695,wydmes
104000159.0,능동교회앞,37.5528739,127.0769927,wydmes
104000158.0,어린이대공원앞.세종대학교,37.5497833,127.07545,wydmee
104000158.0,어린이대공원앞.세종대학교,37.549752,127.07544,wydmee
104000134.0,어린이대공원역.화양천주교회,37.54655,127.0735833,wydmee
104000134.0,어린이대공원역.화양천주교회,37.5466216,127.0736284,wydmee
104000135.0,서울화양초등학교,37.5438,127.0722667,wydmed
104000135.0,서울화양초등학교,37.543765,127.072222,wydmed
104000170.0,건대병원입구,37.5421084,127.0714727,wydmed
104000112.0,건국대학교앞,37.5384461,127.0748753,wydme9
104000086.0,자양초등학교앞,37.5374793,127.0787964,wydme9
104000084.0,자양사거리,37.5367503,127.0821044,wydmec
104000106.0,구의역3번출구,37.53755,127.0882333,wydmec
104000106.0,구의역3번출구,37.5375186,127.0882893,wydmec
104000302.0,구의3동주민센터,37.5390333,127.0925333,wydms1
104000302.0,구의3동주민센터,37.5388973,127.0926316,wydms1
104000074.0,광장동현대아파트앞,37.5420167,127.0991667,wydms4
104000074.0,광장동현대아파트앞,37.5420128,127.0990747,wydms4
104000075.0,광나루역.극동아파트,37.5434667,127.1030667,wydms6
104000075.0,광나루역.극동아파트,37.5434728,127.1030692,wydms6
104000269.0,광진청소년수련관,37.5459333,127.1054167,wydms7
104000269.0,광진청소년수련관,37.5459514,127.1053745,wydms7
104000307.0,광진구민체육센터,37.5468671,127.1077984,wydms7
104000306.0,광나루우편취급국,37.5475566,127.1063923,wydms7
104000076.0,광나루역.극동아파트,37.5441833,127.1032167,wydms6
104000076.0,광나루역.극동아파트,37.543917,127.1030856,wydms6
104000073.0,광장동현대아파트앞,37.5421167,127.09815,wydms4
104000073.0,광장동현대아파트앞,37.541797,127.0974629,wydms4
104000303.0,구의3동주민센터,37.5391833,127.0923167,wydms1
104000303.0,구의3동주민센터,37.5393567,127.0921595,wydms1
104000056.0,구의역2번출구,37.5379333,127.0886,wydmec
104000056.0,구의역2번출구,37.5377026,127.0879772,wydmec
104000083.0,자양사거리,37.5368892,127.0826036,wydmec
104000085.0,자양초등학교앞,37.5378444,127.0786588,wydme9
104000087.0,건국대학교앞,37.538949,127.0749259,wydme9
104000139.0,건대입구역사거리.건대병원,37.5409667,127.0713167,wydmed
104000139.0,건대입구역사거리.건대병원,37.5409809,127.0712638,wydmed
104000141.0,어린이대공원역.화양천주교회,37.5459333,127.0736167,wydmee
104000141.0,어린이대공원역.화양천주교회,37.5459043,127.0735881,wydmee
104000047.0,어린이대공원앞,37.55215,127.0771,wydmes
104000047.0,어린이대공원앞,37.5520458,127.0770314,wydmes
104000048.0,능동사거리.군자역,37.5551667,127.07865,wydmes
104000048.0,능동사거리.군자역,37.5551766,127.0786346,wydmes
104000020.0,중곡2동주민센터앞,37.5598402,127.0811551,wydmev
104000021.0,중곡동성당앞,37.5630899,127.0828471,wydmey
104000022.0,종합의료복합단지,37.5638882,127.0833601,wydmey
104000040.0,중곡역.국립정신건강센터,37.5660464,127.0845454,wydmey
104000039.0,용곡삼거리,37.5679334,127.0855902,wydmez
106000115.0,용마산하늘채아파트,37.5710236,127.0863069,wydmez
106000113.0,용마산역,37.5733815,127.0866708,wydmgb
106000111.0,용마폭포공원,37.5756922,127.0887419,wydmgb
106000109.0,면목동금호어울림아파트,37.5777198,127.0906399,wydmu0
106000155.0,용마산교차로,37.5806781,127.0927883,wydmu1
106000153.0,사가정시장,37.58056,127.089795,wydmgc
106000151.0,사가정역,37.5808589,127.0877426,wydmgc
106000149.0,면목두산아파트2차,37.5811079,127.0848478,wydmgc
106000147.0,사가정센트럴아이파크아파트,37.5813242,127.0822156,wydmgc
106000474.0,늘푸른근린공원,37.5829167,127.0799,wydmgc
106000474.0,늘푸른근린공원,37.5828907,127.0798503,wydmgc
106000024.0,장안시장.중랑구치매지원센터,37.5853667,127.08,wydmgf
106000024.0,장안시장,37.585341,127.0800312,wydmgf
106000129.0,하나은행면목지점,37.586719,127.0809001,wydmgf
106000131.0,면목복개천,37.587913,127.086043,wydmgf
106000133.0,지하철7호선면목역,37.5883969,127.088363,wydmgf
106000135.0,농협앞,37.5891826,127.0919716,wydmu4
106000137.0,혜원여중고후문,37.590197,127.09618,wydmu5
106000094.0,삼용사입구,37.596944,127.1004181,wydmuh
106000047.0,금란교회앞,37.6001227,127.1028947,wydmuk
106000229.0,망우동고개,37.6012829,127.1083597,wydmum
106000232.0,망우동금호어울림아파트,37.6023627,127.1080906,wydmum
106000234.0,서울특별시북부병원,37.6039665,127.1072231,wydmum
106000236.0,양원역입구,37.6056398,127.1063013,wydmum
106000237.0,양원리,37.6092571,127.1067714,wydmuq
106000239.0,동서울교회,37.6117249,127.1051636,wydmur
106000454.0,신내역1번출구,37.6125902,127.1030997,wydmur
106000205.0,신내능마을,37.6144667,127.1017167,wydmur
106000205.0,신내능마을,37.6143619,127.1016592,wydmur
106000203.0,중랑경찰서후문,37.6195,127.10495,wydqh2
106000203.0,중랑경찰서후문,37.6197006,127.1052569,wydqh2
106000471.0,우디안아파트114동앞,37.6191833,127.1070167,wydqh2
106000471.0,우디안아파트114동앞,37.6193259,127.1070735,wydqh2
106000457.0,새솔초등학교,37.61755,127.108,wydqh2
106000457.0,새솔초등학교,37.6173392,127.1085201,wydqh2
106000461.0,신내데시앙포레아파트222동앞,37.6165667,127.1108667,wydmur
106000461.0,신내데시앙포레아파트222동앞,37.616499,127.110883,wydmur
106000459.0,신내데시앙포레아파트220동앞,37.6155667,127.1126,wydmux
106000459.0,신내데시앙포레아파트220동앞,37.6155449,127.1126668,wydmux
106000462.0,당너머,37.613,127.1078,wydmur
106000462.0,당너머,37.6132445,127.1076805,wydmur
106000480.0,중랑공영차고지.종점,37.6133839,127.1044676,wydmur
123000660.0,복정역환승센터3번승강장,37.4700333,127.1272667,wydmhv
123000660.0,복정역환승센터3번승강장,37.4699297,127.1275897,wydmhv
123000631.0,위례31단지.위례포레샤인후문,37.4745833,127.13365,wydmhy
123000631.0,위례31단지.위례포레샤인후문,37.4744546,127.1333813,wydmhy
123000576.0,위례아이파크아파트앞,37.4757167,127.1411333,wydmjn
123000576.0,위례아이파크아파트앞,37.4758687,127.1411478,wydmjn
123000667.0,서울위례별초교.위례별유치원,37.47805,127.1446167,wydmjn
123000667.0,서울위례별초교.위례별유치원,37.478075,127.1446468,wydmjn
123000680.0,위례포레샤인17단지후문,37.4843667,127.1479667,wydmjr
123000680.0,위례포레샤인17단지후문,37.4843629,127.1480094,wydmjr
123000679.0,덕수고등학교,37.4852167,127.1462333,wydmjr
123000679.0,덕수고등학교,37.485193,127.1461962,wydmjr
123000673.0,위례포레샤인17단지정문,37.4872667,127.1490167,wydmm2
123000673.0,위례포레샤인17단지정문,37.4872143,127.1490396,wydmm2
123000652.0,위례포레샤인18단지,37.48915,127.1524667,wydmm2
123000652.0,위례포레샤인18단지,37.4890949,127.1524886,wydmm2
123000197.0,비호아파트,37.4922167,127.15405,wydmm3
123000197.0,비호아파트,37.492178,127.15409,wydmm3
123000188.0,송파파크센트럴,37.4929333,127.1490333,wydmm3
123000188.0,송파파크센트럴,37.492941,127.148924,wydmm3
123000187.0,거여역4번출구,37.4930667,127.1457,wydmm3
123000187.0,거여역4번출구,37.4931392,127.1456917,wydmm3
123000180.0,거여역,37.4941,127.1426333,wydmm1
123000180.0,거여역,37.494054,127.1426661,wydmm1
123000162.0,보인고교.오금동삼성아파트,37.4964,127.1383167,wydmm4
123000162.0,보인고교.오금동삼성아파트,37.4963426,127.1383457,wydmm4
123000161.0,오금동상아아파트,37.4976833,127.1359,wydmm4
123000161.0,오금동상아아파트,37.4976538,127.135938,wydmm4
123000255.0,송파중학교,37.4964167,127.1314667,wydmkf
123000255.0,송파중학교,37.4963729,127.1315012,wydmkf
123000267.0,가락동쌍용아파트앞,37.494,127.1298333,wydmkc
123000267.0,가락동쌍용아파트앞,37.4939454,127.1298582,wydmkc
123000253.0,가락동미륭아파트,37.4927167,127.1282167,wydmkc
123000253.0,가락동미륭아파트,37.4926622,127.1282354,wydmkc
123000274.0,문정1동주민센터.로데오거리,37.4907333,127.1245167,wydmkb
123000274.0,문정1동주민센터.로데오거리,37.4907107,127.1245194,wydmkb
123000273.0,문정로데오거리입구,37.4905,127.1204333,wydmk8
123000273.0,문정로데오거리입구,37.4904599,127.1204716,wydmk8
123000009.0,가락시장.가락시장역(중),37.4944167,127.1171333,wydmk9
123000009.0,가락시장.가락시장역,37.4943822,127.1171609,wydmk9
123000007.0,송파역(중),37.50025,127.1118,wydmk6
123000007.0,송파역,37.5002084,127.1118384,wydmkd
123000005.0,석촌역(중),37.5032,127.1091167,wydmk7
123000005.0,석촌역,37.5034082,127.1089442,wydmk7
123000003.0,석촌호수.한솔병원(중),37.50685,127.1057833,wydmk7
123000003.0,석촌호수.한솔병원,37.5068001,127.1058262,wydmk7
123000049.0,잠실역.롯데월드,37.5128,127.0974167,wydmkh
123000049.0,잠실역.롯데월드,37.5128993,127.0979457,wydmkj
123000050.0,잠실5단지,37.51225,127.0939,wydmkh
123000050.0,잠실5단지,37.5122132,127.0939144,wydmkh
123000052.0,잠실새내역.잠실2동주민센터,37.5118167,127.0872667,wydm7u
123000052.0,잠실새내역.잠실2동주민센터,37.5117722,127.0872805,wydm7u
123000053.0,잠실엘스아파트앞,37.5119167,127.0833667,wydm7u
123000053.0,잠실엘스아파트앞,37.5118706,127.0833904,wydm7u
123000054.0,종합운동장사거리,37.51205,127.0796833,wydm7u
123000054.0,종합운동장사거리,37.5120092,127.0796916,wydm7u
123000055.0,잠실종합운동장,37.5110833,127.07215,wydm7s
123000055.0,잠실종합운동장,37.5111175,127.0720732,wydm7s
122000093.0,강남경찰서면허시험장,37.5098833,127.0657167,wydm7k
122000093.0,강남경찰서면허시험장,37.5099462,127.0657996,wydm7k
122000094.0,삼성역7번출구,37.5104667,127.0627333,wydm7k
122000094.0,삼성역7번출구,37.5104082,127.0627189,wydm7k
122000089.0,봉은사역3번출구.삼성1파출소,37.51515,127.06015,wydm7m
122000089.0,봉은사역3번출구.삼성1파출소,37.5151079,127.0601628,wydm7m
122000085.0,청담역.경기고교,37.5192333,127.0579333,wydm7q
122000085.0,청담역.경기고교,37.5191874,127.0579408,wydm7q
122000069.0,우리은행청담지점.청담삼익아파트,37.5211167,127.0568833,wydm7n
122000069.0,우리은행청담지점.청담삼익아파트,37.5210303,127.0568458,wydm7n
122000066.0,영동교입구.청담자이아파트,37.5228333,127.0559667,wydm7n
122000066.0,영동교입구.청담자이아파트,37.5227837,127.0560022,wydm7n
104000127.0,영동대교북단,37.5366,127.0611,wydme3
104000127.0,영동대교북단,37.536568,127.0611623,wydme3
104000123.0,노룬산시장,37.5395333,127.0626333,wydme3
104000123.0,노룬산시장,37.5395029,127.0626912,wydme3
104000124.0,건대입구역,37.5408833,127.06725,wydme6
104000124.0,건대입구역6번출구,37.5408268,127.0672788,wydme6
104000157.0,화양리,37.54805,127.07135,wydmee
104000157.0,광진광장,37.5480152,127.0713618,wydmee
103000108.0,화양사거리,37.54705,127.06655,wydme7
103000108.0,화양사거리,37.5470178,127.0665273,wydme7
103000109.0,성수초등학교,37.5429333,127.0642333,wydme6
103000109.0,성수사거리.성수초등학교,37.5428884,127.0642659,wydme6
103000091.0,노룬산시장앞,37.5394167,127.0622,wydme3
103000091.0,경수중학교,37.5396998,127.0622986,wydme3
103000090.0,영동대교북단,37.5367667,127.0606333,wydme3
103000090.0,영동대교북단,37.5367692,127.0606419,wydme3
122000067.0,영동교입구,37.5223667,127.05535,wydm7n
122000067.0,영동교입구,37.5223335,127.0553581,wydm7n
122000068.0,청담역.경기고교,37.5208167,127.0562,wydm7n
122000068.0,청담역.경기고교,37.5207652,127.0562111,wydm7n
122000086.0,봉은사.삼성1파출소앞,37.5150167,127.0594,wydm7m
122000086.0,봉은사.삼성1파출소앞,37.5149677,127.0594353,wydm7m
122000095.0,무역센터,37.5119667,127.061,wydm7k
122000095.0,무역센터,37.5111539,127.0615406,wydm7k
122000140.0,강남경찰서.강남운전면허시험장,37.5097667,127.06705,wydm7k
122000140.0,강남경찰서.강남운전면허시험장,37.5097831,127.0671559,wydm7k
123000065.0,잠실종합운동장,37.5105667,127.0727667,wydm7s
123000065.0,잠실종합운동장,37.5104187,127.0728158,wydm7s
123000068.0,종합운동장사거리,37.5116,127.07945,wydm7u
123000068.0,종합운동장사거리,37.5116128,127.0795554,wydm7u
123000069.0,잠실새내역4번출구,37.5114167,127.0843333,wydm7u
123000069.0,잠실새내역4번출구,37.5114066,127.0844951,wydm7u
123000056.0,잠실트리지움아파트앞,37.5115167,127.0912,wydmkh
123000056.0,잠실트리지움아파트앞,37.5115116,127.091202,wydmkh
123000057.0,잠실역.롯데월드,37.5125167,127.0980667,wydmkh
123000057.0,잠실역.롯데월드,37.5124116,127.0981962,wydmkh
123000004.0,석촌호수.한솔병원(중),37.5071833,127.1052833,wydmk7
123000004.0,석촌호수.한솔병원,37.5071052,127.105252,wydmk7
123000006.0,석촌역(중),37.5038333,127.1083667,wydmk7
123000006.0,석촌역,37.5036628,127.1084537,wydmk7
123000008.0,송파역(중),37.5006667,127.1112,wydmk6
123000008.0,송파역,37.5005992,127.1112327,wydmk6
123000010.0,가락시장.가락시장역(중),37.4948333,127.11655,wydmk9
123000010.0,가락시장.가락시장역,37.4949314,127.1164834,wydmk9
123000229.0,문정1동주민센터.로데오거리,37.4904833,127.12465,wydmkb
123000229.0,문정1동주민센터.로데오거리,37.4904186,127.1246795,wydmkb
123000239.0,문정현대아파트,37.4928333,127.1290667,wydmkc
123000239.0,문정현대아파트,37.4927865,127.1290985,wydmkc
123000254.0,가락동쌍용아파트,37.4944333,127.1304,wydmkc
123000254.0,가락동쌍용아파트,37.4943836,127.1304312,wydmkc
123000266.0,가락동극동아파트,37.4963,127.1318,wydmkc
123000266.0,가락동극동아파트,37.4962572,127.1318312,wydmkc
123000257.0,개롱역3번출구,37.4976833,127.1352333,wydmm4
123000257.0,개롱역3번출구,37.4976428,127.135256,wydmm4
123000258.0,삼환아파트,37.4965,127.1374333,wydmm4
123000258.0,삼환아파트,37.496575,127.137465,wydmm4
123000181.0,거여역현대아파트,37.4939,127.1423333,wydmm1
123000181.0,거여역현대아파트,37.493849,127.1423502,wydmm1
123000186.0,거여역5번출구,37.4929167,127.1456667,wydmm3
123000186.0,거여역5번출구,37.4928063,127.1461187,wydmm3
123000311.0,송파파크센트럴,37.49275,127.1494833,wydmm3
123000311.0,송파파크센트럴,37.4926552,127.1495066,wydmm3
123000189.0,종점,37.4927833,127.1527167,wydmm3
123000189.0,종점,37.492768,127.152763,wydmm3
123000190.0,비호아파트,37.49195,127.1542833,wydmm3
123000190.0,비호아파트,37.4918948,127.1543102,wydmm3
123000653.0,위례포레샤인18단지,37.4891,127.152,wydmm2
123000653.0,위례포레샤인18단지,37.4892098,127.1518904,wydmm2
123000672.0,위례포레샤인17단지정문,37.4870333,127.1481833,wydmm2
123000672.0,위례포레샤인17단지정문,37.4871132,127.1481048,wydmm2
123000678.0,덕수고등학교,37.4853,127.1460167,wydmjr
123000678.0,덕수고등학교,37.4852739,127.1459978,wydmjr
123000681.0,송파위례리슈빌,37.4843,127.14725,wydmjr
123000681.0,송파위례리슈빌,37.4842905,127.1472906,wydmjr
123000637.0,서울위례별초교,37.4783167,127.1438333,wydmjn
123000637.0,서울위례별초교,37.478302,127.1440274,wydmjn
123000575.0,송파꿈에그린아파트,37.475,127.1407167,wydmjn
123000575.0,송파꿈에그린아파트,37.4749448,127.1407699,wydmjn
123000630.0,위례포레샤인.위례31단지후문,37.4748333,127.1339167,wydmjn
123000630.0,위례포레샤인.위례31단지후문,37.4747526,127.1334296,wydmhy
123000436.0,복정역환승주차장,37.4707,127.1281333,wydmhv
123000436.0,복정역환승주차장,37.470728,127.128144,wydmhv
123000354.0,장지공영차고지,37.4806401,127.1359435,wydmjp
123000658.0,위례포레샤인13단지,37.4827315,127.1389686,wydmjp
123000656.0,호반써밋송파2차,37.4833667,127.14055,wydmjp
123000656.0,호반써밋송파2차,37.4835845,127.140824,wydmjp
123000671.0,호반써밋송파2차,37.4850314,127.1424816,wydmjp
123000196.0,마천역.송파파크센트럴,37.4935167,127.1522167,wydmm3
123000196.0,마천역.송파파크센트럴,37.4934555,127.1522337,wydmm3
123000195.0,마천1동주민센터,37.4957333,127.1499,wydmm3
123000195.0,마천1동주민센터,37.4957103,127.1498825,wydmm3
123000213.0,마천2동주민센터,37.4970667,127.1479833,wydmm6
123000213.0,마천2동주민센터,37.4970139,127.1480088,wydmm6
123000212.0,마천2동윤진빌딩.신동아아파트,37.4996759,127.1442444,wydmm4
123000164.0,거여초등학교,37.5025481,127.1402155,wydmm5
123000178.0,오금동사거리,37.5027833,127.1378833,wydmm5
123000178.0,오금동사거리,37.5027436,127.1378915,wydmm5
123000176.0,송파도서관,37.5000333,127.1358333,wydmm4
123000176.0,송파도서관,37.4999787,127.1358517,wydmm4
123000160.0,오금공원앞,37.4992,127.1330667,wydmkf
123000160.0,오금공원앞,37.4991573,127.1331008,wydmkf
123000159.0,오금동현대아파트,37.50335,127.1264167,wydmkg
123000159.0,오금동현대아파트,37.5032944,127.1264326,wydmkg
123000135.0,한양.삼익아파트,37.5059833,127.1215833,wydmke
123000135.0,한양삼익아파트,37.5059514,127.1216253,wydmke
123000112.0,송파동한양1차아파트,37.5059692,127.1155208,wydmke
123000111.0,송파2동한양아파트,37.5038731,127.1138832,wydmke
123000364.0,잠실여고후문,37.502501,127.111619,wydmk7
123000059.0,잠실트리지움,37.5109779,127.0926278,wydmkh
123000061.0,영동일고트리지움APT정문앞,37.509037,127.091732,wydmkh
123000082.0,잠실119안전센터,37.5070833,127.0929167,wydmk5
123000082.0,잠실119안전센터,37.5070038,127.0929452,wydmk5
123000081.0,삼학사길사거리,37.5046424,127.0969939,wydmk5
123000079.0,송파구민회관구의회,37.5027,127.0947333,wydmk5
123000079.0,송파구민회관구의회,37.5027059,127.0947575,wydmk5
123000078.0,삼전사거리,37.50395,127.0897667,wydm7g
123000078.0,삼전역,37.5039542,127.0897903,wydm7g
123000071.0,잠실우성4차현대아파트,37.5052624,127.0852075,wydm7g
123000073.0,잠실근린공원.성현교회,37.506322,127.0814987,wydm7g
123000075.0,아시아선수촌아파트,37.5098569,127.0790366,wydm7u
123000066.0,아시아선수촌아파트,37.51041,127.0784474,wydm7s
123000074.0,아시아선수촌아파트삼거리.성현교회,37.5061437,127.0808025,wydm7g
123000072.0,잠실우성4차현대아파트,37.5048198,127.0854796,wydm7g
123000077.0,삼전사거리,37.5039,127.0889167,wydm7g
123000077.0,삼전역,37.5038161,127.088909,wydm7g
123000080.0,송파구민회관구의회,37.5024667,127.0945667,wydmk5
123000080.0,송파구민회관구의회,37.5023772,127.0945705,wydmk5
123000094.0,삼학사길사거리,37.504269,127.097278,wydmk5
123000064.0,잠실119안전센터,37.5070833,127.0947167,wydmk5
123000064.0,잠실119안전센터,37.5070078,127.0947494,wydmk5
123000060.0,영동일고레이크팰리스앞,37.5088084,127.0921466,wydmkh
123000058.0,갤러리아팰리스,37.5113174,127.0929234,wydmkh
123000120.0,잠실여고후문,37.50255,127.11205,wydmke
123000120.0,잠실여고후문,37.50255,127.1122298,wydmke
123000119.0,한양공원,37.5037333,127.1139333,wydmke
123000119.0,한양공원,37.503707,127.113797,wydmke
123000118.0,송파2동한양삼성아파트,37.5060833,127.1158,wydmke
123000118.0,송파2동한양삼성아파트,37.5059979,127.1157233,wydmke
123000117.0,삼익아파트미성아파트,37.5061333,127.1203667,wydmke
123000117.0,삼익아파트미성아파트,37.5060869,127.1203825,wydmke
123000278.0,송파경찰서,37.5027333,127.1267333,wydmkg
123000278.0,송파경찰서.오금역,37.5026804,127.1267629,wydmkg
123000635.0,오금역3번출구,37.5014608,127.1287671,wydmkf
123000177.0,우창아파트,37.4997505,127.1360639,wydmm4
123000179.0,오금동사거리,37.502775,127.138162,wydmm5
123000165.0,거여초등학교,37.50241,127.140012,wydmm5
123000211.0,마천2동윤진빌딩.신동아아파트,37.4997151,127.1438724,wydmm4
123000193.0,마천2동주민센터,37.49725,127.14745,wydmm6
123000193.0,마천2동주민센터,37.4970173,127.1477248,wydmm6
123000192.0,마천1동주민센터,37.4953167,127.1502833,wydmm3
123000192.0,마천1동주민센터,37.4955822,127.1498251,wydmm3
123000654.0,마천역.송파파크센트럴,37.4943,127.1512833,wydmm3
123000654.0,마천역.송파파크센트럴,37.4942476,127.1513064,wydmm3
123000670.0,위례포레샤인15단지,37.4853102,127.1431924,wydmjp
123000655.0,호반써밋송파1차,37.484,127.14045,wydmjp
123000655.0,호반써밋송파1차,37.4843422,127.1405075,wydmjp
123000657.0,위례포레샤인13단지,37.4833189,127.1381854,wydmjp
123000677.0,위례포레샤인13단지공원,37.4830231,127.1360736,wydmjp
123000355.0,장지공영차고지,37.480357,127.1359033,wydmjp
124000344.0,강동공영차고지,37.5643167,127.1745667,wydmty
124000344.0,강동공영차고지,37.564251,127.174627,wydmty
124000209.0,강일초등학교,37.5650333,127.1758167,wydmty
124000209.0,강일초등학교,37.565095,127.175752,wydmty
124000469.0,강일역2번출구,37.5579167,127.17725,wydmtv
124000469.0,강일역2번출구,37.5579846,127.1772337,wydmtv
124000368.0,고덕리엔파크2단지.3단지,37.5572833,127.1736833,wydmtv
124000368.0,강일역.고덕리엔파크2단지.3단지,37.557338,127.1737391,wydmtv
124000031.0,상일동역4번출구.센트럴푸르지오,37.5571833,127.1692833,wydmtv
124000031.0,상일동역4번출구.센트럴푸르지오,37.5572232,127.1692516,wydmtv
124000033.0,상일동역1번출구,37.5566,127.1644,wydmts
124000033.0,상일동역1번출구,37.556588,127.1644476,wydmts
124000035.0,고덕그라시움,37.5560833,127.1608,wydmts
124000035.0,고덕그라시움,37.5560578,127.1608318,wydmts
124000037.0,고덕평생학습관.온조대왕체육관,37.5557333,127.1581667,wydmts
124000037.0,고덕평생학습관.온조대왕체육관,37.5556884,127.1581417,wydmts
124000078.0,강동아트센터.강동경희대병원,37.5523833,127.1561,wydmts
124000078.0,강동아트센터.강동경희대병원,37.5523444,127.1561087,wydmts
124000149.0,명일동현대아파트,37.54925,127.1532833,wydmt7
124000149.0,명일동현대아파트,37.549385,127.1532833,wydmt7
124000151.0,고덕삼환.주공9단지아파트,37.5492333,127.15155,wydmt7
124000151.0,고덕삼환.주공9단지아파트,37.5493637,127.1515184,wydmt7
124000153.0,명일여자고등학교,37.5493833,127.1483667,wydmt7
124000153.0,명일여자고등학교,37.5494552,127.1484178,wydmt7
124000155.0,명일1동주민센터,37.5504,127.1462333,wydmt7
124000155.0,명일1동주민센터,37.550478,127.146272,wydmt7
124000123.0,명일역1번출구.명일전통시장,37.55035,127.14405,wydmt5
124000123.0,명일역1번출구.명일전통시장,37.5500246,127.1436702,wydmt5
124000125.0,굽은다리사거리,37.54795,127.1433333,wydmt5
124000125.0,굽은다리사거리,37.5479101,127.1433278,wydmt5
124000405.0,굽은다리역구민회관.강동홈플러스,37.5454167,127.1426667,wydmt4
124000405.0,굽은다리역구민회관.강동홈플러스,37.545358,127.1427152,wydmt4
124000127.0,십자성마을,37.5435,127.1419833,wydmt4
124000127.0,십자성마을,37.5434576,127.1419714,wydmt4
124000195.0,천동초교입구사거리,37.5399833,127.1406833,wydmt1
124000195.0,천동초교입구사거리,37.5399404,127.1406623,wydmt1
124000129.0,길동역1번출구,37.5380167,127.1399333,wydmt1
124000129.0,길동역1번출구,37.5379724,127.13994,wydmt1
124000131.0,예닮요양병원,37.5355667,127.13895,wydmt1
124000131.0,서울프라임한방병원,37.5355253,127.1389352,wydmt1
124000133.0,혜림교회앞,37.5314167,127.1373333,wydmt0
124000133.0,강동리바트,37.5313641,127.137332,wydmt0
124000135.0,둔촌동역4번출구,37.5282833,127.1361,wydmmp
124000135.0,둔촌동역4번출구,37.5282558,127.1361248,wydmmp
124000137.0,둔촌종합상가,37.5235667,127.1343333,wydmmn
124000137.0,서울성내동우체국,37.5235199,127.1343603,wydmmn
123000153.0,보성중고등학교,37.51935,127.1327333,wydmky
123000153.0,보성중고등학교,37.5200907,127.1330532,wydmky
123000154.0,올림픽공원역,37.51675,127.1309,wydmkv
123000154.0,올림픽공원역,37.5167177,127.1308988,wydmkv
123000149.0,올림픽공원장미광장,37.5128167,127.12635,wydmku
123000149.0,올림픽공원장미광장,37.5127209,127.126375,wydmku
123000150.0,올림픽공원남2문,37.5145833,127.1219167,wydmkt
123000150.0,올림픽공원남2문,37.5145024,127.1220284,wydmkt
123000584.0,한성백제박물관,37.5155,127.1193667,wydmkt
123000584.0,한성백제박물관,37.5155044,127.1194168,wydmkt
123000151.0,몽촌토성역.한성백제역,37.5172667,127.11455,wydmkt
123000151.0,몽촌토성역.한성백제역,37.5171889,127.114529,wydmkt
123000039.0,신천동진주아파트,37.51665,127.1093333,wydmkm
123000039.0,신천동진주아파트,37.5166152,127.1094861,wydmkm
123000046.0,잠실역9번출구,37.5148667,127.10405,wydmkm
123000046.0,잠실역9번출구,37.5148007,127.1040886,wydmkm
123000294.0,가락시장.가락시장역,37.4938333,127.1171833,wydmk9
123000294.0,가락시장.가락시장역,37.4937628,127.1171509,wydmk9
123000295.0,가락시장.가락몰,37.4918833,127.11585,wydmk9
123000295.0,가락시장.가락몰,37.491843,127.115874,wydmk9
123000296.0,가락시장남문,37.4907833,127.1123667,wydmk8
123000296.0,가락시장남문,37.4907995,127.1124034,wydmk8
122000297.0,수서역.KT수서지점,37.4872333,127.1007167,wydmk0
122000297.0,수서역KT수서지점,37.4871885,127.1007358,wydmk0
122000299.0,궁마을,37.4854,127.0972333,wydmk0
122000299.0,궁마을,37.4853495,127.097246,wydmhp
122000348.0,태화기독교.사회복지관,37.4845667,127.0932333,wydmhp
122000348.0,태화기독교.사회복지관,37.4845282,127.0933527,wydmhp
122000276.0,수서삼성아파트앞,37.4844667,127.091,wydmhp
122000276.0,수서삼성아파트앞,37.4843993,127.0909893,wydmhp
122000277.0,일원본동주민센터,37.48355,127.08485,wydm5z
122000277.0,일원본동주민센터,37.4834885,127.0847497,wydm5z
122000282.0,삼성서울병원정문,37.4864833,127.08305,wydm7b
122000282.0,삼성서울병원정문,37.4865445,127.0829902,wydm7b
122000258.0,연금매점,37.4882833,127.0747667,wydm78
122000258.0,연금매점,37.4882473,127.0747982,wydm78
122000255.0,공무원아파트,37.4922833,127.0757667,wydm79
122000255.0,디에이치자이개포아파트,37.4922272,127.0757916,wydm79
122000293.0,대청역,37.4933,127.0788667,wydm7c
122000293.0,대청역,37.4932344,127.0788924,wydm7c
122000346.0,영희초등학교,37.49125,127.0805,wydm7c
122000346.0,영희초등학교,37.4911914,127.0804871,wydm7c
122000724.0,래미안개포루체하임아파트,37.48935,127.0814333,wydm7b
122000724.0,래미안개포루체하임아파트,37.4893482,127.0813369,wydm7b
122000283.0,삼성서울병원정문건너편,37.4870833,127.0824333,wydm7b
122000283.0,삼성서울병원정문건너편,37.4870251,127.0824491,wydm7b
122000284.0,일원역,37.4851667,127.0832667,wydm5z
122000284.0,일원역,37.4851178,127.0832793,wydm5z
122000280.0,일원본동주민센터,37.4834167,127.0857667,wydm5z
122000280.0,일원본동주민센터,37.4833831,127.0859753,wydm5z
122000338.0,시립수서청소년수련관,37.4839333,127.08945,wydm5z
122000338.0,시립수서청소년수련관,37.483863,127.089107,wydm5z
122000281.0,수서119.안전센터앞,37.4842833,127.0925833,wydmhp
122000281.0,수서119.안전센터앞,37.4843205,127.0937686,wydmhp
122000300.0,궁마을,37.4852333,127.0975333,wydmhp
122000300.0,궁마을,37.4852808,127.0976066,wydmhp
122000303.0,수서역.로즈데일빌딩,37.4873833,127.1028333,wydmk2
122000303.0,수서역.로즈데일빌딩,37.4873984,127.1028677,wydmk2
123000243.0,문정2동주민센터.청소년수련관,37.4905,127.1124,wydmk8
123000243.0,문정2동주민센터.청소년수련관,37.4904768,127.1125408,wydmk8
123000244.0,훼미리근린공원,37.4912333,127.1148667,wydmk9
123000244.0,훼미리근린공원,37.4911854,127.11491,wydmk9
123000045.0,잠실역1번.11번출구,37.5139667,127.1029667,wydmkm
123000045.0,잠실역1번.11번출구,37.514152,127.1030252,wydmkm
123000127.0,잠실진주아파트,37.5162167,127.10965,wydmkm
123000127.0,잠실진주아파트,37.5161753,127.1096189,wydmkm
123000305.0,몽촌토성역.한성백제역,37.5168667,127.1134833,wydmkt
123000305.0,몽촌토성역.한성백제역,37.5168773,127.1134131,wydmkt
123000128.0,올림픽베어스타운아파트앞,37.5149,127.1191,wydmkt
123000128.0,올림픽베어스타운아파트앞,37.514828,127.1191035,wydmkt
123000132.0,올림픽공원남2문,37.5140333,127.1215667,wydmkt
123000132.0,올림픽공원남2문,37.5139722,127.1215535,wydmkt
123000133.0,올림픽공원장미광장,37.5127167,127.1249,wydmku
123000133.0,올림픽공원장미광장,37.5126512,127.1249201,wydmku
123000157.0,올림픽선수촌아파트,37.5132333,127.12935,wydmkv
123000157.0,올림픽선수촌아파트,37.5131692,127.1292671,wydmkv
123000155.0,올림픽공원역,37.5163833,127.1314333,wydmkv
123000155.0,올림픽공원역,37.5163242,127.1314785,wydmkv
123000152.0,보성중고등학교,37.5195833,127.13345,wydmky
123000152.0,보성중고등학교,37.5205247,127.1338686,wydmmn
124000138.0,둔촌종합상가,37.5248333,127.1354,wydmmp
124000138.0,한국전력공사강동송파지사,37.5247612,127.135469,wydmmp
124000136.0,둔촌동역2번출구,37.5276333,127.1365,wydmmp
124000136.0,둔촌동역2번출구,37.5275876,127.1365195,wydmmp
124000134.0,동명약국앞,37.5306833,127.1376167,wydmt0
124000134.0,동명약국앞,37.530647,127.1375191,wydmt0
124000132.0,예닮요양병원,37.5352,127.1391833,wydmt1
124000132.0,서울프라임한방병원,37.5351257,127.1392535,wydmt1
124000130.0,길동역3번출구,37.5373667,127.1399667,wydmt1
124000130.0,길동역3번출구,37.5373136,127.1400078,wydmt1
124000194.0,천동초교입구사거리,37.54,127.1410167,wydmt1
124000194.0,천동초교입구사거리,37.5399553,127.141012,wydmt1
124000128.0,십자성마을,37.5430167,127.1421,wydmt4
124000128.0,십자성마을,37.542979,127.1421222,wydmt4
124000406.0,굽은다리역구민회관.강동홈플러스,37.54565,127.1431167,wydmt4
124000406.0,굽은다리역구민회관.강동홈플러스,37.545612,127.143063,wydmt4
124000126.0,굽은다리사거리,37.5473167,127.1435333,wydmt5
124000126.0,굽은다리사거리,37.5472655,127.1435586,wydmt5
124000124.0,명일역4번출구.명일전통시장,37.5500667,127.14365,wydmt5
124000124.0,명일역4번출구.명일전통시장,37.5503142,127.1440658,wydmt5
124000156.0,명일1동주민센터,37.5502667,127.1462667,wydmt7
124000156.0,명일1동주민센터,37.5502386,127.1462409,wydmt7
124000154.0,명일여자고등학교,37.5491333,127.14895,wydmt7
124000154.0,명일여자고등학교,37.5490799,127.1489775,wydmt7
124000152.0,고덕삼환.주공9단지아파트,37.5491,127.1521667,wydmt7
124000152.0,고덕삼환.주공9단지아파트,37.5490515,127.1521939,wydmt7
124000150.0,한영중고한영외고,37.5491167,127.1554667,wydmt7
124000150.0,한영중고한영외고,37.5490679,127.1554952,wydmt7
124000079.0,강동아트센터.강동경희대병원후문,37.5510333,127.1564667,wydmte
124000079.0,강동아트센터.강동경희대병원후문,37.5509949,127.1565303,wydmte
124000077.0,강동경희대병원.명일동이마트,37.5545833,127.1567333,wydmts
124000077.0,강동경희대병원.명일동이마트,37.5545494,127.1567607,wydmts
124000036.0,고덕그라시움,37.5557833,127.1602333,wydmts
124000036.0,고덕그라시움,37.5557278,127.1602719,wydmts
124000034.0,상일동역8번출구,37.5564,127.1646667,wydmts
124000034.0,상일동역8번출구,37.556357,127.1647011,wydmts
124000032.0,상일동역6번출구.고덕아르테온,37.55695,127.1691167,wydmtv
124000032.0,상일동역6번출구.고덕아르테온,37.5568167,127.1681175,wydmtv
124000367.0,고덕리엔파크3단지.2단지,37.55705,127.1726667,wydmtv
124000367.0,강일역.고덕리엔파크3단지.2단지,37.5570948,127.1738368,wydmtv
124000461.0,강일역3번출구,37.55755,127.1766167,wydmtv
124000461.0,강일역3번출구,37.5576252,127.1772712,wydmtv
124000210.0,강일초등학교,37.5658333,127.1767667,wydmty
124000210.0,강일초등학교,37.5657416,127.1767618,wydmty
124000429.0,강일리버파크6단지,37.5640833,127.1754333,wydmty
124000429.0,강일리버파크6단지,37.5640279,127.1754266,wydmty
123000356.0,아이코리아,37.4809413,127.1333059,wydmhz
123000372.0,송파글마루도서관.버들어린이집,37.481607,127.131555,wydmhz
123000375.0,문현고등학교,37.4805494,127.1291283,wydmhz
123000219.0,문현중학교,37.4800743,127.1269147,wydmhz
123000217.0,건영아파트,37.481675,127.126677,wydmhz
123000220.0,문덕초등학교.문정고등학교,37.483681,127.1264052,wydmhz
123000233.0,문정동푸르지오아파트,37.4871576,127.1271777,wydmkb
123000235.0,문정동래미안아파트,37.4918094,127.1293795,wydmkc
123000101.0,송파사거리,37.501518,127.1086248,wydmk6
123000098.0,송파책박물관.헬리오시티,37.5002341,127.1044857,wydmk6
123000096.0,석촌동남현교회앞,37.49902,127.1006951,wydmk4
123000095.0,배명중고교,37.4997098,127.0969106,wydmk4
122000090.0,봉은사역5번출구.광동한방병원,37.5143904,127.0623659,wydm7m
122000091.0,노블발렌티웨딩홀,37.5148306,127.0647588,wydm7m
122000092.0,서울의료원강남분원,37.512568,127.065604,wydm7k
123000088.0,배명중고교,37.5001551,127.0966612,wydmk4
123000097.0,석촌동남현교회앞,37.4988102,127.1005388,wydmk4
123000099.0,송파책박물관.헬리오시티,37.4999173,127.1040226,wydmk6
123000100.0,송파사거리.석촌시장,37.5015446,127.1091779,wydmk6
123000367.0,가락래미안앞,37.4992,127.1323833,wydmkf
123000367.0,가락래미안앞,37.499257,127.132413,wydmkf
123000236.0,문정래미안현대아파트앞,37.491672,127.128978,wydmkc
123000234.0,문정동대우아파트,37.486845,127.126833,wydmkb
