stat_id,stat_name,lat,lng,geohash
751.0,까치울,37.50613,126.81093,wydjmeu
752.0,부천종합운동장,37.50502,126.79661,wydjm7d
753.0,춘의,37.50365,126.78828,wydjm5k
754.0,신중동,37.50282,126.77566,wydjkg5
755.0,부천시청,37.50444,126.76364,wydjke6
756.0,상동,37.505814,126.753163,wydjk7d
757.0,삼산체육관,37.50724,126.74179,wydjk5f
758.0,굴포천,37.50681,126.73234,wydj7gg
759.0,부평구청,37.50848,126.72077,wydj7s5
760.0,산곡,37.5086,126.7035277,wydj7hn
761.0,석남,37.5062285,126.6762813,wydj6ef
4001.0,서울역,37.553247,126.969769,wydm9k2
4002.0,공덕,37.54253,126.952024,wydm8f7
4003.0,홍대입구,37.557438,126.926715,wydm8m1
4004.0,디지털미디어시티,37.576958,126.898609,wydjz8s
4020.0,마곡나루,37.565543,126.827378,wydjwn8
4005.0,김포공항,37.561842,126.801904,wydjtmy
4006.0,계양,37.571662,126.7363,wydjezw
4007.0,검암,37.569098,126.674007,wydjdx1
4011.0,청라국제도시,37.556409,126.624648,wydj9kv
4012.0,영종,37.51202,126.524254,wy9vrhu
4008.0,운서,37.492904,126.49379,wy9vq3m
4009.0,공항화물청사,37.459041,126.477516,wy9vn54
4010.0,인천공항1터미널,37.447464,126.452508,wy9vj3p
4013.0,인천공항2터미널,37.460699,126.441442,wy9vj5x
11321.0,북한산우이,37.662909,127.012706,wydq60r
11322.0,솔밭공원,37.65603,127.013273,wydq4r0
11323.0,4.19 민주묘지,37.649502,127.013684,wydq4mb
11324.0,가오리,37.641537,127.016789,wydq4k6
11325.0,화계,37.634133,127.017511,wydq475
11326.0,삼양,37.626914,127.018106,wydq43g
11327.0,삼양사거리,37.621337,127.020473,wydq42v
11328.0,솔샘,37.620238,127.013626,wydq428
11329.0,북한산보국문,37.612072,127.008251,wydmfph
11330.0,정릉,37.603133,127.013396,wydmfm2
11331.0,성신여대입구,37.592467,127.016516,wydmf76
11332.0,보문,37.585286,127.019381,wydmf6h
11333.0,신설동,37.576095,127.023242,wydmf2x
1907.0,신사,37.516334,127.020114,wydm6mt
1908.0,논현,37.511093,127.021415,wydm6kw
1909.0,신논현,37.504598,127.02506,wydm6e8
1910.0,강남,37.496837,127.028104,wydm6d5
1911.0,양재,37.483809,127.034653,wydm4xx
1912.0,양재시민의숲,37.470023,127.03842,wydm4v4
1913.0,청계산입구,37.447211,127.055664,wydm51p
1914.0,판교,37.394761,127.112217,wydksx8
1915.0,정자,37.367098,127.108403,wydks6m
1916.0,미금,37.349982,127.108918,wydkkrm
1917.0,동천,37.337928,127.102976,wydkkm1
1918.0,수지구청,37.322702,127.095026,wydkk47
1919.0,성복,37.313335,127.0801,wydk7b8
1920.0,상현,37.297664,127.069342,wydk5tc
1921.0,광교중앙,37.288617,127.051478,wydk5hh
1922.0,광교,37.30211,127.044483,wydk4yw
11711.0,샛강,37.5170969,126.929399,wydm2mg
11712.0,대방,37.5133059,126.9257265,wydm2m0
11713.0,서울지방병무청,37.5060464,126.9227083,wydm25y
11714.0,보라매,37.5002739,126.9204355,wydm24s
11715.0,보라매공원,37.4955691,126.9180827,wydm21f
11716.0,보라매병원,37.4929598,126.9234964,wydm21q
11717.0,당곡,37.4902998,126.9275133,wydm22c
11718.0,신림,37.4849266,126.9296159,wydm0rg
11719.0,서원,37.4782341,126.9330365,wydm0qt
11720.0,서울대벤처타운,37.4720019,126.9339351,wydm0mw
11721.0,관악산(서울대),37.4691018,126.9450639,wydm0tn
408.0,별내별가람,37.66778,127.11581,wydqk94
406.0,오남,37.705,127.19281,wydqqrf
405.0,진접,37.7205,127.2034,wydqwdf
125.0,청량리,37.579956,127.044585,wydmfcp
126.0,제기동,37.578103,127.034893,wydmf8z
127.0,신설동,37.576048,127.024634,wydmf88
199.0,동묘앞,37.573197,127.01648,wydmdrf
128.0,동대문,37.571687,127.01093,wydmdpw
129.0,종로5가,37.570926,127.001849,wydm9zx
130.0,종로3가,37.570406,126.991847,wydm9z2
131.0,종각,37.570161,126.982923,wydm9x6
132.0,시청,37.565715,126.977088,wydm9qt
133.0,서울역,37.556228,126.972135,wydm9kf
201.0,시청,37.563588,126.975411,wydm9qh
202.0,을지로입구,37.566014,126.982618,wydm9w9
203.0,을지로3가,37.566306,126.991696,wydm9y8
204.0,을지로4가,37.566595,126.997817,wydm9yu
205.0,동대문역사문화공원,37.565613,127.009054,wydmdnt
206.0,신당,37.56564,127.019614,wydmdqs
207.0,상왕십리,37.564354,127.029354,wydmdw7
208.0,왕십리,37.561238,127.036954,wydmdvc
209.0,한양대,37.555273,127.043655,wydmduw
210.0,뚝섬,37.547184,127.047367,wydme53
211.0,성수,37.544581,127.055961,wydme4z
212.0,건대입구,37.540373,127.069191,wydmed0
213.0,구의,37.537077,127.085916,wydmecm
214.0,강변,37.535095,127.094681,wydms15
215.0,잠실나루,37.520733,127.10379,wydmkq6
216.0,잠실,37.513262,127.100159,wydmkjp
217.0,잠실새내,37.511687,127.086162,wydm7uv
218.0,종합운동장,37.511022,127.073704,wydm7ss
219.0,삼성,37.508844,127.06316,wydm7kk
220.0,선릉,37.504286,127.048203,wydm753
221.0,역삼,37.500622,127.036456,wydm6fc
222.0,강남,37.49799,127.027912,wydm6d6
223.0,교대,37.493961,127.014667,wydm639
224.0,서초,37.491897,127.007917,wydm61h
225.0,방배,37.481426,126.997596,wydm1zk
226.0,사당,37.476538,126.981544,wydm1w3
227.0,낙성대,37.47693,126.963693,wydm1nk
228.0,서울대입구,37.481247,126.952739,wydm0zk
229.0,봉천,37.482362,126.941892,wydm0xk
230.0,신림,37.484201,126.929715,wydm0rg
231.0,신대방,37.487462,126.913149,wydjrbr
232.0,구로디지털단지,37.485266,126.901401,wydjpxy
233.0,대림,37.493243,126.894932,wydjr96
234.0,신도림,37.508961,126.891084,wydjrkr
235.0,문래,37.517933,126.89476,wydjrtc
236.0,영등포구청,37.525706,126.89661,wydjrx7
237.0,당산,37.534946,126.902767,wydjx9p
238.0,합정,37.549457,126.913808,wydjxgx
239.0,홍대입구,37.55679,126.923708,wydm8jp
240.0,신촌,37.555131,126.936926,wydm8s8
241.0,이대,37.556733,126.946013,wydm8sz
242.0,아현,37.557345,126.956141,wydm8vn
243.0,충정로,37.559704,126.964378,wydm9js
251.0,용답,37.561904,127.050899,wydmejg
252.0,신답,37.57004,127.046481,wydmep2
254.0,용두,37.574028,127.038091,wydmfb4
253.0,신설동,37.574747,127.024932,wydmf82
261.0,도림천,37.514287,126.882768,wydjrm3
262.0,양천구청,37.512398,126.865819,wydjquu
263.0,신정네거리,37.520074,126.852912,wydjqw7
319.0,지축,37.648033,126.913917,wydnpvx
320.0,구파발,37.636763,126.918821,wydq05e
321.0,연신내,37.619229,126.921038,wydq00m
322.0,불광,37.610553,126.92982,wydmbqg
323.0,녹번,37.600927,126.935756,wydmbmp
324.0,홍제,37.589066,126.943736,wydmbdv
325.0,무악재,37.582299,126.950291,wydmbcd
326.0,독립문,37.574571,126.957748,wydmbbp
327.0,경복궁,37.575762,126.97353,wydmc27
328.0,안국,37.576477,126.985443,wydmc8e
329.0,종로3가,37.571605,126.991791,wydm9z8
330.0,을지로3가,37.566672,126.992548,wydm9yc
331.0,충무로,37.56143,126.994072,wydm9vf
332.0,동대입구,37.559052,127.005602,wydmdj6
333.0,약수,37.554867,127.010541,wydmdhw
334.0,금호,37.548034,127.015872,wydmd76
335.0,옥수,37.541684,127.017269,wydmd67
336.0,압구정,37.527072,127.028461,wydm6xe
337.0,신사,37.516334,127.020114,wydm6mt
338.0,잠원,37.512759,127.01122,wydm6hy
339.0,고속터미널,37.504891,127.004916,wydm65d
340.0,교대,37.493025,127.013786,wydm632
341.0,남부터미널,37.485013,127.016189,wydm4rf
342.0,양재,37.484477,127.033902,wydm4xz
343.0,매봉,37.486947,127.046769,wydm702
344.0,도곡,37.490922,127.055452,wydm71n
345.0,대치,37.494612,127.063642,wydm73s
346.0,학여울,37.496663,127.070594,wydm7d1
347.0,대청,37.493514,127.079532,wydm7c2
348.0,일원,37.483681,127.08439,wydm5zs
349.0,수서,37.487378,127.101907,wydmk22
350.0,가락시장,37.492245,127.117757,wydmk9k
351.0,경찰병원,37.495918,127.12454,wydmkcc
352.0,오금,37.502129,127.128319,wydmkgh
409.0,당고개,37.670272,127.079066,wydq7c8
410.0,상계,37.660878,127.073572,wydq5xu
411.0,노원,37.65627,127.063276,wydq5rh
412.0,창동,37.653088,127.047274,wydq5n9
413.0,쌍문,37.648627,127.034709,wydq4tx
414.0,수유,37.638052,127.025732,wydq4ec
415.0,미아,37.62667,127.025983,wydq499
416.0,미아사거리,37.613292,127.030053,wydmfxk
417.0,길음,37.603407,127.025053,wydmft2
418.0,성신여대입구,37.592612,127.016441,wydmf7d
419.0,한성대입구,37.588458,127.006221,wydmf4g
420.0,혜화,37.582336,127.001844,wydmccx
421.0,동대문,37.57093,127.009287,wydmdpt
422.0,동대문역사문화공원,37.565133,127.007885,wydmdns
423.0,충무로,37.561207,126.99408,wydm9vf
424.0,명동,37.560989,126.986325,wydm9tu
425.0,회현,37.558514,126.978246,wydm9mq
426.0,서울역,37.55281,126.972556,wydm9k6
427.0,숙대입구,37.54456,126.972106,wydm96f
428.0,삼각지,37.534075,126.9726,wydm92f
429.0,신용산,37.52917,126.967894,wydm3pz
430.0,이촌,37.522295,126.974733,wydm3qs
431.0,동작,37.502852,126.980347,wydm3e0
432.0,총신대입구(이수),37.486263,126.981989,wydm381
433.0,사당,37.476955,126.981651,wydm1w3
434.0,남태령,37.463873,126.989134,wydm1sn
510.0,방화,37.577446,126.812741,wydjv8y
511.0,개화산,37.572399,126.806171,wydjtxc
512.0,김포공항,37.562384,126.801292,wydjtqj
513.0,송정,37.561184,126.811973,wydjttv
514.0,마곡,37.560183,126.825448,wydjtvx
515.0,발산,37.558598,126.837668,wydjwm2
516.0,우장산,37.548768,126.836318,wydjw5x
517.0,화곡,37.541513,126.840461,wydjw64
518.0,까치산,37.531768,126.846683,wydjw2q
519.0,신정,37.524997,126.856191,wydjqxj
520.0,목동,37.526065,126.864931,wydjqzk
521.0,오목교,37.524496,126.875181,wydjrp5
522.0,양평,37.525569,126.886129,wydjrr7
523.0,영등포구청,37.5242,126.89503,wydjrx4
524.0,영등포시장,37.522669,126.905139,wydjryc
525.0,신길,37.517623,126.914839,wydm2jb
526.0,여의도,37.521747,126.924357,wydm2nx
527.0,여의나루,37.527098,126.932901,wydm2rt
528.0,마포,37.539574,126.945932,wydm89z
529.0,공덕,37.544431,126.951372,wydm8fg
530.0,애오개,37.553736,126.95682,wydm8ur
531.0,충정로,37.560236,126.9629,wydm9je
532.0,서대문,37.565773,126.966641,wydm9nw
533.0,광화문,37.571525,126.97717,wydm9rt
534.0,종로3가,37.57254,126.9903,wydm9xz
535.0,을지로4가,37.567352,126.998032,wydm9yv
536.0,동대문역사문화공원,37.564665,127.005353,wydmdn6
537.0,청구,37.560276,127.013639,wydmdm8
538.0,신금호,37.554548,127.020331,wydmdkt
539.0,행당,37.557322,127.029476,wydmdth
540.0,왕십리,37.56184,127.037059,wydmdvc
541.0,마장,37.5661,127.042973,wydmdyt
542.0,답십리,37.566747,127.052704,wydmenu
543.0,장한평,37.56144,127.064623,wydmemv
544.0,군자(능동),37.557088,127.079577,wydmev0
545.0,아차산(어린이대공원후문),37.551691,127.089761,wydmeup
546.0,광나루(장신대),37.545303,127.10357,wydms6c
547.0,천호(풍납토성),37.53864,127.123308,wydmsc8
548.0,강동,37.535804,127.132481,wydmscp
549.0,길동,37.537801,127.140004,wydmt1s
550.0,굽은다리,37.545477,127.142853,wydmt4y
551.0,명일,37.55137,127.143999,wydmthp
552.0,고덕,37.555004,127.154151,wydmtkw
553.0,상일동,37.556712,127.166417,wydmtsz
569.0,둔촌동,37.527788,127.136248,wydmmp9
570.0,올림픽공원,37.516201,127.130923,wydmkvt
571.0,방이,37.508857,127.126133,wydmku6
572.0,오금,37.502057,127.127938,wydmkg5
573.0,개롱,37.498079,127.13482,wydmm42
574.0,거여,37.493105,127.14415,wydmm1r
554.0,강일,37.55749,127.17593,wydmtvn
555.0,미사,37.560927,127.193877,wydmwmg
556.0,하남풍산,37.552034,127.203864,wydmws5
557.0,하남시청,37.54205,127.20612,wydmwdk
558.0,하남검단산,37.53972,127.22345,wydmx1c
575.0,마천,37.49499,127.152781,wydmm3v
610.0,응암,37.598605,126.915577,wydmbh9
611.0,역촌,37.606021,126.922744,wydmbjy
612.0,불광,37.610873,126.92939,wydmbqg
613.0,독바위,37.618456,126.933031,wydq02j
614.0,연신내,37.618636,126.920625,wydq00k
615.0,구산,37.611377,126.91727,wydmbnf
616.0,새절,37.591148,126.913629,wydjzgr
617.0,증산,37.583876,126.909645,wydjzcu
618.0,디지털미디어시티,37.576108,126.901391,wydjz8w
619.0,월드컵경기장,37.569532,126.899298,wydjxxm
620.0,마포구청,37.563515,126.903343,wydjxy0
621.0,망원,37.556094,126.910052,wydjxuv
622.0,합정,37.549209,126.913366,wydjxgx
623.0,상수,37.547716,126.922852,wydm85q
624.0,광흥창,37.547456,126.931993,wydm87m
625.0,대흥,37.547771,126.942069,wydm8ek
626.0,공덕,37.543555,126.951678,wydm8fe
627.0,효창공원앞,37.539233,126.961384,wydm91f
628.0,삼각지,37.535534,126.974032,wydm935
629.0,녹사평,37.534675,126.986695,wydm98u
630.0,이태원,37.534488,126.994302,wydm9bf
631.0,한강진,37.539631,127.001725,wydm9cz
632.0,버티고개,37.548013,127.007055,wydmd57
633.0,약수,37.554263,127.010358,wydmdhw
634.0,청구,37.560608,127.013986,wydmdm8
635.0,신당,37.566154,127.016146,wydmdqd
636.0,동묘앞,37.572279,127.015653,wydmdrc
637.0,창신,37.579661,127.015241,wydmf31
638.0,보문,37.585274,127.019351,wydmf6h
639.0,안암,37.586272,127.029005,wydmfd7
640.0,고려대,37.590508,127.036296,wydmfg1
641.0,월곡,37.601948,127.041518,wydmfvh
642.0,상월곡,37.606377,127.048491,wydmgn1
643.0,돌곶이,37.610537,127.056431,wydmgnz
644.0,석계,37.614872,127.065595,wydmgrw
645.0,태릉입구,37.617338,127.074735,wydq58h
646.0,화랑대,37.620064,127.084689,wydq5bs
647.0,봉화산,37.617283,127.091401,wydqh01
648.0,신내,37.613174,127.102231,wydmur3
709.0,장암,37.700109,127.053196,wydq7pj
710.0,도봉산,37.689241,127.046509,wydq7j0
711.0,수락산,37.67785,127.055315,wydq75n
712.0,마들,37.66494,127.057675,wydq728
713.0,노원,37.654836,127.060462,wydq5qf
714.0,중계,37.644583,127.064303,wydq5kv
715.0,하계,37.636352,127.06799,wydq5e2
716.0,공릉,37.625742,127.072896,wydq59e
717.0,태릉입구,37.618294,127.075397,wydq58j
718.0,먹골,37.610637,127.077725,wydmgwz
719.0,중화,37.602545,127.079264,wydmgv2
720.0,상봉,37.595577,127.085716,wydmguh
721.0,면목,37.588579,127.087503,wydmgfy
722.0,사가정,37.580894,127.088478,wydmgcr
723.0,용마산,37.573647,127.086727,wydmgbj
724.0,중곡,37.565923,127.08432,wydmeye
725.0,군자(능동),37.556897,127.079338,wydmev0
726.0,어린이대공원(세종대),37.548014,127.074658,wydmeek
727.0,건대입구,37.540786,127.071011,wydmed4
728.0,뚝섬유원지,37.53154,127.066704,wydme2r
729.0,청담,37.519365,127.05335,wydm7nj
730.0,강남구청,37.517179,127.041255,wydm6vu
731.0,학동,37.514229,127.031656,wydm6tm
732.0,논현,37.511093,127.021415,wydm6kw
733.0,반포,37.508178,127.011727,wydm6hp
734.0,고속터미널,37.503367,127.005068,wydm656
735.0,내방,37.487618,126.993513,wydm3b3
736.0,총신대입구(이수),37.485196,126.981605,wydm1xc
737.0,남성,37.484596,126.971251,wydm1rc
738.0,숭실대입구,37.496029,126.953822,wydm2cu
739.0,상도,37.502834,126.94791,wydm2g0
740.0,장승배기,37.504898,126.93915,wydm2ed
741.0,신대방삼거리,37.499701,126.928276,wydm26d
742.0,보라매,37.499872,126.920428,wydm24s
743.0,신풍,37.50008,126.90993,wydjrfs
744.0,대림,37.493013,126.897075,wydjr97
745.0,남구로,37.486056,126.887249,wydjr2h
746.0,가산디지털단지,37.480338,126.882656,wydjpr1
747.0,철산,37.47605,126.867911,wydjnyq
748.0,광명사거리,37.479252,126.854876,wydjnwu
749.0,천왕,37.486637,126.838713,wydjq21
750.0,온수,37.492092,126.823023,wydjmcj
810.0,암사,37.55021,127.127562,wydmsgg
811.0,천호(풍납토성),37.538113,127.123254,wydmsc8
812.0,강동구청,37.530341,127.120508,wydms8n
813.0,몽촌토성(평화의문),37.517409,127.112359,wydmktb
814.0,잠실,37.514692,127.104338,wydmkm6
815.0,석촌,37.505557,127.106832,wydmk7s
816.0,송파,37.499703,127.112183,wydmkd8
817.0,가락시장,37.492888,127.118398,wydmk9k
818.0,문정,37.485855,127.1225,wydmk8p
819.0,장지,37.478703,127.126191,wydmhyf
820.0,복정,37.471052,127.126732,wydmhv6
831.0,남위례,37.4624,127.13977,wydmj5u
821.0,산성,37.457122,127.149908,wydmj6g
822.0,남한산성입구,37.451535,127.159816,wydmj9f
823.0,단대오거리,37.44521,127.156866,wydmj88
824.0,신흥,37.440918,127.147564,wydkvrf
825.0,수진,37.437428,127.140722,wydkvpm
826.0,모란,37.433824,127.129837,wydkuyt
901.0,개화,37.578608,126.798153,wydjv2g
902.0,김포공항,37.561916,126.802152,wydjtmy
903.0,공항시장,37.563726,126.810678,wydjtwk
904.0,신방화,37.567532,126.816601,wydjtyc
905.0,마곡나루,37.566778,126.82731,wydjwnb
906.0,양천향교,37.568381,126.841333,wydjwr5
907.0,가양,37.561391,126.854456,wydjwtu
908.0,증미,37.557402,126.861939,wydjwv4
909.0,등촌,37.550632,126.865689,wydjwgu
910.0,염창,37.546936,126.874916,wydjx55
911.0,신목동,37.544277,126.88308,wydjx69
912.0,선유도,37.53802,126.893525,wydjx99
913.0,당산,37.533406,126.902809,wydjx8x
914.0,국회의사당,37.528105,126.917874,wydm2pf
915.0,여의도,37.52176,126.92403,wydm2nx
916.0,샛강,37.517274,126.928422,wydm2mf
917.0,노량진,37.513534,126.941005,wydm2t5
918.0,노들,37.512887,126.953222,wydm2vh
919.0,흑석,37.50877,126.963708,wydm3hk
920.0,동작,37.502878,126.978153,wydm37n
921.0,구반포,37.501364,126.987332,wydm3dv
922.0,신반포,37.503415,126.995925,wydm3g7
923.0,고속터미널,37.50598,127.004403,wydm65c
924.0,사평,37.504206,127.015259,wydm673
925.0,신논현,37.504598,127.02506,wydm6e8
184.0,수원,37.266348,126.999561,wydk1bn
185.0,세류,37.245025,127.013222,wyd7fk0
186.0,병점,37.207503,127.032731,wyd7dtq
1187.0,서동탄,37.195504,127.051672,wyd7e5h
187.0,세마,37.187533,127.04318,wyd7dcy
188.0,오산대,37.168953,127.063197,wyd77qk
189.0,오산,37.145885,127.06672,wyd776p
190.0,진위,37.109447,127.062278,wyd757e
1401.0,송탄,37.075696,127.054301,wyd6gjq
1403.0,평택지제,37.0188,127.070444,wyd6ee1
1402.0,서정리,37.056496,127.052819,wyd6g1v
1404.0,평택,36.990726,127.085159,wyd67vu
178.0,명학,37.384653,126.935433,wydk8mx
1405.0,성환,36.916076,127.126964,wyd6hb7
1406.0,직산,36.870593,127.143904,wyd3v0p
1407.0,두정,36.833705,127.14896,wyd3t37
1408.0,천안,36.810005,127.146826,wyd3mm1
1409.0,봉명,36.801215,127.135763,wyd3m53
1410.0,쌍용(나사렛대),36.793759,127.1214,wyd3kdn
1411.0,아산,36.792053,127.104361,wyd3k3f
1412.0,탕정,36.78866,127.08485,wyd37ch
1413.0,배방,36.777629,127.052991,wyd35pj
1415.0,온양온천,36.780483,127.003249,wyd34p8
1416.0,신창,36.769502,126.951108,wyd30vd
1175.0,광명,37.416182,126.884466,wydhz76
175.0,석수,37.435047,126.902295,wydhzwz
176.0,관악,37.419232,126.908706,wydhzgu
177.0,안양,37.401592,126.922874,wydkb0y
134.0,남영,37.541021,126.9713,wydm961
135.0,용산,37.529849,126.964561,wydm90h
136.0,노량진,37.514149,126.94271,wydm2th
137.0,대방,37.513342,126.926382,wydm2m0
138.0,신길,37.516862,126.917865,wydm2jd
139.0,영등포,37.515504,126.907628,wydjrv7
140.0,신도림,37.508787,126.891144,wydjrkr
141.0,구로,37.503039,126.881966,wydjr70
172.0,가산디지털단지,37.481581,126.882581,wydjpr3
173.0,독산,37.466613,126.889249,wydjpkt
174.0,금천구청,37.455626,126.89398,wydjpd9
179.0,금정,37.372221,126.943429,wydk8em
180.0,군포,37.35356,126.948462,wydk8b1
1181.0,당정,37.344285,126.948345,wydk2y2
181.0,의왕,37.320852,126.948217,wydk2f0
182.0,성균관대,37.300349,126.97075,wydk1q3
183.0,화서,37.283862,126.989627,wydk1er
124.0,회기,37.589802,127.057936,wydmg70
123.0,외대앞,37.596073,127.063549,wydmgkh
122.0,신이문,37.601854,127.067325,wydmgmp
121.0,석계,37.614532,127.065934,wydmgrw
120.0,광운대,37.623632,127.061835,wydq535
119.0,월계,37.633212,127.058831,wydq56c
118.0,녹천,37.644799,127.051269,wydq5j5
117.0,창동,37.653007,127.047806,wydq5n9
116.0,방학,37.667503,127.044273,wydq6cn
115.0,도봉,37.679563,127.045595,wydq6gr
114.0,도봉산,37.689534,127.046049,wydq7j0
113.0,망월사,37.709914,127.047455,wydqe0c
112.0,회룡,37.724416,127.04736,wydqe59
111.0,의정부,37.738415,127.045958,wydqen0
110.0,가능,37.748577,127.044213,wydqdzy
108.0,녹양,37.75938,127.042292,wydqfcv
107.0,양주,37.774381,127.044708,wydqfux
106.0,덕계,37.818486,127.056486,wydr5hx
105.0,덕정,37.843188,127.061277,wydr735
104.0,지행,37.892334,127.055716,wydre4p
103.0,동두천중앙,37.901885,127.056482,wydre5z
102.0,보산,37.913702,127.057277,wydremb
101.0,동두천,37.927878,127.05479,wydrg0w
100.0,소요산,37.9481,127.061034,wydrgk5
1631.0,임진강,37.888421,126.746765,wydps1q
1630.0,운천,37.879942,126.769999,wydpkxz
1610.0,서울역,37.557231,126.97103,wydm9m1
1611.0,신촌,37.559733,126.942597,wydm8ts
1612.0,가좌,37.568491,126.915487,wydm8p1
1606.0,효창공원앞,37.538579,126.96221,wydm91e
1607.0,공덕,37.542596,126.952099,wydm8f7
1608.0,서강대,37.551881,126.935711,wydm8kp
1609.0,홍대입구,37.557641,126.926683,wydm8m1
1613.0,디지털미디어시티,37.577475,126.900453,wydjz8y
1614.0,수색,37.580842,126.895611,wydjz96
1615.0,화전,37.602888,126.868387,wydjyvq
1635.0,강매,37.612314,126.843223,wydjyrh
1616.0,행신,37.612102,126.834146,wydjypj
1617.0,능곡,37.618808,126.820783,wydnjbk
1619.0,곡산,37.645676,126.801762,wydnjmn
1620.0,백마,37.658239,126.794461,wydnjr2
1621.0,풍산,37.672346,126.786243,wydnm44
1622.0,일산,37.682077,126.769846,wydnkey
1623.0,탄현,37.694023,126.761086,wydnktb
1636.0,야당,37.712327,126.761356,wydns92
1624.0,운정,37.725826,126.767257,wydnsev
1625.0,금릉,37.751322,126.765347,wydnu87
1626.0,금촌,37.766217,126.774644,wydnug4
1627.0,월롱,37.796188,126.792587,wydpj0x
1628.0,파주,37.815298,126.792783,wydpjhp
1629.0,문산,37.854619,126.788047,wydpm5h
142.0,구일,37.496756,126.870793,wydjr40
143.0,개봉,37.494594,126.85968,wydjqc8
144.0,오류동,37.494526,126.845365,wydjq3t
145.0,온수,37.492267,126.823399,wydjmcm
146.0,역곡,37.492433,126.824086,wydjmcq
147.0,소사,37.482753,126.79544,wydjjr9
148.0,부천,37.48405,126.782686,wydjjpb
149.0,중동,37.486562,126.764843,wydjk85
150.0,송내,37.4876,126.753664,wydjk27
151.0,부개,37.488418,126.74109,wydjk0d
152.0,부평,37.489445,126.724506,wydj78t
153.0,백운,37.483664,126.707704,wydj5r9
154.0,동암,37.471408,126.702896,wydj5jq
155.0,간석,37.464737,126.694181,wydj4up
156.0,주안,37.465047,126.679742,wydj4sm
157.0,도화,37.46607,126.668672,wydj4km
158.0,제물포,37.466769,126.656666,wydj4hs
159.0,도원,37.468446,126.642706,wydj1uf
160.0,동인천,37.475276,126.632802,wydj1w5
161.0,인천,37.476079,126.616801,wydj1nr
1807.0,회기,37.589802,127.057936,wydmg70
1806.0,청량리,37.580543,127.046516,wydmg12
1808.0,중랑,37.594948,127.076152,wydmgey
1810.0,상봉,37.595254,127.085853,wydmguj
1811.0,망우,37.599288,127.092318,wydmuh9
1812.0,신내,37.612887,127.103218,wydmur1
1813.0,갈매,37.634118,127.114757,wydqhe4
1814.0,별내,37.64202,127.12684,wydqhud
1815.0,퇴계원,37.648311,127.143952,wydqjjx
1816.0,사릉,37.65108,127.176933,wydqjyp
1817.0,금곡,37.637382,127.207853,wydqnet
1818.0,평내호평,37.653225,127.244493,wydqpw8
1819.0,천마산,37.658978,127.285379,wydw0rw
1820.0,마석,37.652782,127.311767,wydw1n3
1821.0,대성리,37.684071,127.379319,wydw6s4
1822.0,청평,37.735488,127.42661,wydwett
1823.0,상천,37.770246,127.454821,wydwu7c
1824.0,가평,37.814536,127.510739,wydxjef
1825.0,굴봉산,37.832067,127.557695,wydxnxh
1826.0,백양리,37.830779,127.58933,wydxpqg
1827.0,강촌,37.805723,127.634146,wydz06k
1828.0,김유정,37.818466,127.71434,wydz4hw
1829.0,남춘천,37.864007,127.723792,wydz6kv
1830.0,춘천,37.885054,127.717023,wydzd2b
1509.0,청량리,37.580543,127.046516,wydmg12
1510.0,왕십리,37.561128,127.035505,wydmdvb
1511.0,서울숲,37.543617,127.044707,wydmdfx
1512.0,압구정로데오,37.527381,127.040534,wydm6zs
1513.0,강남구청,37.517469,127.041151,wydm6vu
1514.0,선정릉,37.510735,127.043677,wydm6uw
1515.0,선릉,37.504856,127.048807,wydm75d
1516.0,한티,37.496237,127.052873,wydm71v
1517.0,도곡,37.491224,127.055186,wydm71n
1518.0,구룡,37.486839,127.058856,wydm723
1519.0,개포동,37.489116,127.06614,wydm72w
1520.0,대모산입구,37.491373,127.07272,wydm795
1521.0,수서,37.487472,127.101422,wydmk22
1522.0,복정,37.470345,127.126658,wydmhv6
1523.0,가천대,37.448605,127.126697,wydmhc6
1524.0,태평,37.440019,127.127709,wydkuze
1525.0,모란,37.432052,127.129104,wydkuyk
1526.0,야탑,37.411185,127.128715,wydkufk
1527.0,이매,37.395371,127.128248,wydksze
1528.0,서현,37.385126,127.123592,wydksvb
1529.0,수내,37.378455,127.114322,wydkss9
1530.0,정자,37.365994,127.10807,wydks6m
1531.0,미금,37.350077,127.10891,wydkkrm
1532.0,오리,37.339824,127.108942,wydkkmt
1534.0,죽전,37.324753,127.107395,wydkk6u
1533.0,보정,37.312752,127.108196,wydkk2t
1535.0,구성,37.298969,127.105664,wydkhq5
1536.0,신갈,37.286102,127.111313,wydkh7x
1537.0,기흥,37.275061,127.11591,wydkh9d
1538.0,상갈,37.26181,127.108847,wyd7urm
1539.0,청명,37.259489,127.078934,wyd7gyb
1540.0,영통,37.251568,127.071394,wyd7gt6
1541.0,망포,37.245795,127.057353,wyd7gk2
1542.0,매탄권선,37.252759,127.040566,wyd7fvs
1543.0,수원시청,37.261911,127.030736,wyd7fxk
1544.0,매교,37.265481,127.015678,wyd7frc
1545.0,수원,37.265917,126.999422,wydk1bn
11109.0,고색,37.24963,126.980248,wyd7ct0
11110.0,오목천,37.24304,126.963676,wyd7c5u
11111.0,어천,37.250102,126.90879,wyd5zvh
11112.0,야목,37.264179,126.879483,wyd5zpw
11113.0,사리,37.28998,126.85685,wydhnsq
11114.0,한대앞,37.309685,126.853656,wydhq8h
11115.0,중앙,37.316055,126.838532,wydhq31
11116.0,고잔,37.316821,126.823094,wydhmcm
11117.0,초지,37.320583,126.806151,wydhmd1
11118.0,안산,37.327006,126.788748,wydhm5h
11119.0,신길온천,37.337488,126.767306,wydhktj
11120.0,정왕,37.351816,126.742844,wydhkpe
11121.0,오이도,37.361773,126.738437,wydhs18
11150.0,달월,37.379681,126.745177,wydhshv
11122.0,월곶,37.391769,126.742699,wydhsng
11123.0,소래포구,37.40095,126.733522,wydhgbs
11124.0,인천논현,37.400614,126.722478,wydhg8s
11125.0,호구포,37.401637,126.708627,wydhg2f
11126.0,남동인더스파크,37.407722,126.695216,wydhg1b
11127.0,원인재,37.413049,126.686648,wydhfff
11128.0,연수,37.417804,126.67894,wydhfes
11129.0,송도,37.428514,126.657772,wydhfjt
11131.0,인하대,37.448493,126.649619,wydj1cr
11132.0,숭의,37.460789,126.638297,wydj1ex
11133.0,신포,37.46874,126.623853,wydj1ku
11134.0,인천,37.476403,126.617326,wydj1nr
435.0,선바위,37.451673,127.002303,wydm41b
436.0,경마공원,37.443885,127.007888,wydm40k
437.0,대공원,37.435675,127.006523,wydkfng
438.0,과천,37.433021,126.996568,wydkcyk
439.0,정부과천청사,37.426513,126.98978,wydkctr
440.0,인덕원,37.401553,126.976715,wydkc2t
441.0,평촌,37.394287,126.963883,wydk9pk
442.0,범계,37.389793,126.950806,wydk8yd
444.0,산본,37.358101,126.933274,wydk82v
445.0,수리산,37.349801,126.925365,wydk2r2
446.0,대야미,37.328467,126.917332,wydk256
447.0,반월,37.312212,126.903524,wydhrb2
448.0,상록수,37.302795,126.866489,wydhnyv
450.0,중앙,37.315941,126.838573,wydhq31
449.0,한대앞,37.309689,126.85344,wydhq85
451.0,고잔,37.316784,126.823144,wydhmcm
452.0,초지,37.320646,126.805913,wydhmd1
453.0,안산,37.327082,126.788532,wydhm5h
454.0,신길온천,37.338212,126.765844,wydhkth
455.0,정왕,37.351735,126.742989,wydhkpe
456.0,오이도,37.362357,126.738714,wydhs18
318.0,삼송,37.653083,126.895558,wydnpwd
370.0,원흥,37.650658,126.872642,wydnpn1
317.0,원당,37.653324,126.843041,wydnnqs
316.0,화정,37.634592,126.83265,wydnn5h
315.0,대곡,37.631626,126.811024,wydnjds
314.0,백석,37.643114,126.78787,wydnjhs
313.0,마두,37.652206,126.77762,wydnhyk
312.0,정발산,37.659477,126.773359,wydnhz9
311.0,주엽,37.670072,126.761334,wydnk98
310.0,대화,37.676087,126.747569,wydnk4w
938.0,중앙보훈병원,37.529191,127.148739,wydmmrf
937.0,둔촌오륜,37.519683,127.137989,wydmmn5
936.0,올림픽공원,37.516269,127.130288,wydmkvt
935.0,한성백제,37.516404,127.116503,wydmkte
934.0,송파나루,37.510372,127.112216,wydmks8
933.0,석촌,37.505208,127.10704,wydmk7s
932.0,석촌고분,37.502558,127.097033,wydmk5j
931.0,삼전,37.504738,127.088025,wydm7gw
930.0,종합운동장,37.511426,127.076275,wydm7sw
929.0,봉은사,37.514219,127.060245,wydm7m6
928.0,삼성중앙,37.513011,127.053282,wydm7jj
927.0,선정릉,37.510297,127.043999,wydm6uw
926.0,언주,37.507287,127.033868,wydm6ez
443.0,금정,37.372209,126.943417,wydk8em
1318.0,용산,37.52989,126.964775,wydm90h
192.0,왕십리,37.561827,127.038352,wydmdvf
191.0,청량리,37.580759,127.0483,wydmg13
1317.0,회기,37.58946,127.057583,wydmg6b
1316.0,중랑,37.594917,127.076116,wydmgey
1390.0,상봉,37.596678,127.08504,wydmguk
1315.0,망우,37.59955,127.091909,wydmuhc
1314.0,양원,37.606596,127.107906,wydmuqj
1299.0,지평,37.476393,127.629874,wydv0q3
1313.0,구리,37.603392,127.143869,wydmvjr
1312.0,도농,37.608806,127.161153,wydmvw7
1311.0,양정,37.60533,127.19364,wydmymg
1310.0,덕소,37.586781,127.208832,wydmydq
1309.0,도심,37.579622,127.222672,wydmz10
1308.0,팔당,37.547371,127.243939,wydmxe2
1307.0,운길산,37.554669,127.310115,wydt9h8
1306.0,양수,37.545981,127.329098,wydt97n
1305.0,신원,37.525545,127.372921,wydt6rq
1304.0,국수,37.516169,127.399367,wydt7j9
1303.0,아신,37.51382,127.443173,wydtkj1
1394.0,오빈,37.506062,127.473868,wydtkez
1302.0,양평,37.492773,127.491837,wydtm1k
1301.0,원덕,37.468672,127.547076,wydtnku
1300.0,용문,37.48223,127.594647,wydtprr
1618.0,대곡,37.631629,126.811025,wydnjds
198.0,이촌,37.522427,126.973406,wydm3qe
197.0,서빙고,37.519594,126.988537,wydm3wn
196.0,한남,37.52943,127.009169,wydmd0j
195.0,옥수,37.540446,127.018672,wydmd6h
193.0,응봉,37.549946,127.034538,wydmdez
264.0,까치산,37.531394,126.846987,wydjw2r
1809.0,광운대,37.623986,127.061956,wydq535
